[
  {
    "pid": "1",
    "pref": "北海道",
    "cid": "1100",
    "city": "札幌市",
    "citykana": "さっぽろし",
    "lat": 43.06208877,
    "lng": 141.3543886,
    "lgcode": "11002"
  },
  {
    "pid": "1",
    "pref": "北海道",
    "cid": "1101",
    "city": "札幌市 中央区",
    "citykana": "さっぽろし ちゅうおうく",
    "lat": 43.0553865,
    "lng": 141.3409671,
    "lgcode": "11011"
  },
  {
    "pid": "1",
    "pref": "北海道",
    "cid": "1102",
    "city": "札幌市 北区",
    "citykana": "さっぽろし きたく",
    "lat": 43.09079296,
    "lng": 141.3408807,
    "lgcode": "11029"
  },
  {
    "pid": "1",
    "pref": "北海道",
    "cid": "1103",
    "city": "札幌市 東区",
    "citykana": "さっぽろし ひがしく",
    "lat": 43.07611111,
    "lng": 141.3636111,
    "lgcode": "11037"
  },
  {
    "pid": "1",
    "pref": "北海道",
    "cid": "1104",
    "city": "札幌市 白石区",
    "citykana": "さっぽろし しろいしく",
    "lat": 43.04756872,
    "lng": 141.40522,
    "lgcode": "11045"
  },
  {
    "pid": "1",
    "pref": "北海道",
    "cid": "1105",
    "city": "札幌市 豊平区",
    "citykana": "さっぽろし とよひらく",
    "lat": 43.03134414,
    "lng": 141.3800612,
    "lgcode": "11053"
  },
  {
    "pid": "1",
    "pref": "北海道",
    "cid": "1106",
    "city": "札幌市 南区",
    "citykana": "さっぽろし みなみく",
    "lat": 42.99000828,
    "lng": 141.3533998,
    "lgcode": "11061"
  },
  {
    "pid": "1",
    "pref": "北海道",
    "cid": "1107",
    "city": "札幌市 西区",
    "citykana": "さっぽろし にしく",
    "lat": 43.0744547,
    "lng": 141.3008974,
    "lgcode": "11070"
  },
  {
    "pid": "1",
    "pref": "北海道",
    "cid": "1108",
    "city": "札幌市 厚別区",
    "citykana": "さっぽろし あつべつく",
    "lat": 43.03639318,
    "lng": 141.4747615,
    "lgcode": "11088"
  },
  {
    "pid": "1",
    "pref": "北海道",
    "cid": "1109",
    "city": "札幌市 手稲区",
    "citykana": "さっぽろし ていねく",
    "lat": 43.12187423,
    "lng": 141.2457843,
    "lgcode": "11096"
  },
  {
    "pid": "1",
    "pref": "北海道",
    "cid": "1110",
    "city": "札幌市 清田区",
    "citykana": "さっぽろし きよたく",
    "lat": 42.99951523,
    "lng": 141.4437927,
    "lgcode": "11100"
  },
  {
    "pid": "1",
    "pref": "北海道",
    "cid": "1202",
    "city": "函館市",
    "citykana": "はこだてし",
    "lat": 41.76864057,
    "lng": 140.7290679,
    "lgcode": "12025"
  },
  {
    "pid": "1",
    "pref": "北海道",
    "cid": "1203",
    "city": "小樽市",
    "citykana": "おたるし",
    "lat": 43.19070647,
    "lng": 140.9944857,
    "lgcode": "12033"
  },
  {
    "pid": "1",
    "pref": "北海道",
    "cid": "1204",
    "city": "旭川市",
    "citykana": "あさひかわし",
    "lat": 43.77083333,
    "lng": 142.365,
    "lgcode": "12041"
  },
  {
    "pid": "1",
    "pref": "北海道",
    "cid": "1205",
    "city": "室蘭市",
    "citykana": "むろらんし",
    "lat": 42.31520812,
    "lng": 140.9736731,
    "lgcode": "12050"
  },
  {
    "pid": "1",
    "pref": "北海道",
    "cid": "1206",
    "city": "釧路市",
    "citykana": "くしろし",
    "lat": 42.98492315,
    "lng": 144.3817102,
    "lgcode": "12068"
  },
  {
    "pid": "1",
    "pref": "北海道",
    "cid": "1207",
    "city": "帯広市",
    "citykana": "おびひろし",
    "lat": 42.92405501,
    "lng": 143.1962056,
    "lgcode": "12076"
  },
  {
    "pid": "1",
    "pref": "北海道",
    "cid": "1208",
    "city": "北見市",
    "citykana": "きたみし",
    "lat": 43.80392712,
    "lng": 143.8957877,
    "lgcode": "12084"
  },
  {
    "pid": "1",
    "pref": "北海道",
    "cid": "1209",
    "city": "夕張市",
    "citykana": "ゆうばりし",
    "lat": 43.0568559,
    "lng": 141.9740889,
    "lgcode": "12092"
  },
  {
    "pid": "1",
    "pref": "北海道",
    "cid": "1210",
    "city": "岩見沢市",
    "citykana": "いわみざわし",
    "lat": 43.19611111,
    "lng": 141.7758333,
    "lgcode": "12106"
  },
  {
    "pid": "1",
    "pref": "北海道",
    "cid": "1211",
    "city": "網走市",
    "citykana": "あばしりし",
    "lat": 44.02063505,
    "lng": 144.2734742,
    "lgcode": "12114"
  },
  {
    "pid": "1",
    "pref": "北海道",
    "cid": "1212",
    "city": "留萌市",
    "citykana": "るもいし",
    "lat": 43.94100709,
    "lng": 141.6369314,
    "lgcode": "12122"
  },
  {
    "pid": "1",
    "pref": "北海道",
    "cid": "1213",
    "city": "苫小牧市",
    "citykana": "とまこまいし",
    "lat": 42.63416667,
    "lng": 141.6055556,
    "lgcode": "12131"
  },
  {
    "pid": "1",
    "pref": "北海道",
    "cid": "1214",
    "city": "稚内市",
    "citykana": "わっかないし",
    "lat": 45.41563748,
    "lng": 141.6730675,
    "lgcode": "12149"
  },
  {
    "pid": "1",
    "pref": "北海道",
    "cid": "1215",
    "city": "美唄市",
    "citykana": "びばいし",
    "lat": 43.3330171,
    "lng": 141.8540435,
    "lgcode": "12157"
  },
  {
    "pid": "1",
    "pref": "北海道",
    "cid": "1216",
    "city": "芦別市",
    "citykana": "あしべつし",
    "lat": 43.51821332,
    "lng": 142.1894862,
    "lgcode": "12165"
  },
  {
    "pid": "1",
    "pref": "北海道",
    "cid": "1217",
    "city": "江別市",
    "citykana": "えべつし",
    "lat": 43.10365105,
    "lng": 141.5360696,
    "lgcode": "12173"
  },
  {
    "pid": "1",
    "pref": "北海道",
    "cid": "1218",
    "city": "赤平市",
    "citykana": "あかびらし",
    "lat": 43.55798822,
    "lng": 142.0441993,
    "lgcode": "12181"
  },
  {
    "pid": "1",
    "pref": "北海道",
    "cid": "1219",
    "city": "紋別市",
    "citykana": "もんべつし",
    "lat": 44.35638889,
    "lng": 143.3541667,
    "lgcode": "12190"
  },
  {
    "pid": "1",
    "pref": "北海道",
    "cid": "1220",
    "city": "士別市",
    "citykana": "しべつし",
    "lat": 44.17857528,
    "lng": 142.4001608,
    "lgcode": "12203"
  },
  {
    "pid": "1",
    "pref": "北海道",
    "cid": "1221",
    "city": "名寄市",
    "citykana": "なよろし",
    "lat": 44.3559089,
    "lng": 142.4631835,
    "lgcode": "12211"
  },
  {
    "pid": "1",
    "pref": "北海道",
    "cid": "1222",
    "city": "三笠市",
    "citykana": "みかさし",
    "lat": 43.24565996,
    "lng": 141.8753755,
    "lgcode": "12220"
  },
  {
    "pid": "1",
    "pref": "北海道",
    "cid": "1223",
    "city": "根室市",
    "citykana": "ねむろし",
    "lat": 43.33007352,
    "lng": 145.5828718,
    "lgcode": "12238"
  },
  {
    "pid": "1",
    "pref": "北海道",
    "cid": "1224",
    "city": "千歳市",
    "citykana": "ちとせし",
    "lat": 42.82100926,
    "lng": 141.6510058,
    "lgcode": "12246"
  },
  {
    "pid": "1",
    "pref": "北海道",
    "cid": "1225",
    "city": "滝川市",
    "citykana": "たきかわし",
    "lat": 43.55772933,
    "lng": 141.9103899,
    "lgcode": "12254"
  },
  {
    "pid": "1",
    "pref": "北海道",
    "cid": "1226",
    "city": "砂川市",
    "citykana": "すながわし",
    "lat": 43.49478639,
    "lng": 141.9034778,
    "lgcode": "12262"
  },
  {
    "pid": "1",
    "pref": "北海道",
    "cid": "1227",
    "city": "歌志内市",
    "citykana": "うたしないし",
    "lat": 43.52166667,
    "lng": 142.0352778,
    "lgcode": "12271"
  },
  {
    "pid": "1",
    "pref": "北海道",
    "cid": "1228",
    "city": "深川市",
    "citykana": "ふかがわし",
    "lat": 43.72319472,
    "lng": 142.0535134,
    "lgcode": "12289"
  },
  {
    "pid": "1",
    "pref": "北海道",
    "cid": "1229",
    "city": "富良野市",
    "citykana": "ふらのし",
    "lat": 43.34200922,
    "lng": 142.3831468,
    "lgcode": "12297"
  },
  {
    "pid": "1",
    "pref": "北海道",
    "cid": "1230",
    "city": "登別市",
    "citykana": "のぼりべつし",
    "lat": 42.41277778,
    "lng": 141.1066667,
    "lgcode": "12301"
  },
  {
    "pid": "1",
    "pref": "北海道",
    "cid": "1231",
    "city": "恵庭市",
    "citykana": "えにわし",
    "lat": 42.88258231,
    "lng": 141.5777691,
    "lgcode": "12319"
  },
  {
    "pid": "1",
    "pref": "北海道",
    "cid": "1233",
    "city": "伊達市",
    "citykana": "だてし",
    "lat": 42.47194444,
    "lng": 140.8647222,
    "lgcode": "12335"
  },
  {
    "pid": "1",
    "pref": "北海道",
    "cid": "1234",
    "city": "北広島市",
    "citykana": "きたひろしまし",
    "lat": 42.98566933,
    "lng": 141.5635545,
    "lgcode": "12343"
  },
  {
    "pid": "1",
    "pref": "北海道",
    "cid": "1235",
    "city": "石狩市",
    "citykana": "いしかりし",
    "lat": 43.17138889,
    "lng": 141.3155556,
    "lgcode": "12351"
  },
  {
    "pid": "1",
    "pref": "北海道",
    "cid": "1236",
    "city": "北斗市",
    "citykana": "ほくとし",
    "lat": 41.82416667,
    "lng": 140.6530556,
    "lgcode": "12360"
  },
  {
    "pid": "1",
    "pref": "北海道",
    "cid": "1303",
    "city": "当別町",
    "citykana": "とうべつちょう",
    "lat": 43.22381951,
    "lng": 141.5171281,
    "lgcode": "13030"
  },
  {
    "pid": "1",
    "pref": "北海道",
    "cid": "1304",
    "city": "新篠津村",
    "citykana": "しんしのつむら",
    "lat": 43.22541251,
    "lng": 141.6492815,
    "lgcode": "13048"
  },
  {
    "pid": "1",
    "pref": "北海道",
    "cid": "1331",
    "city": "松前町",
    "citykana": "まつまえちょう",
    "lat": 41.42996802,
    "lng": 140.1103613,
    "lgcode": "13315"
  },
  {
    "pid": "1",
    "pref": "北海道",
    "cid": "1332",
    "city": "福島町",
    "citykana": "ふくしまちょう",
    "lat": 41.48374263,
    "lng": 140.2512881,
    "lgcode": "13323"
  },
  {
    "pid": "1",
    "pref": "北海道",
    "cid": "1333",
    "city": "知内町",
    "citykana": "しりうちちょう",
    "lat": 41.59833333,
    "lng": 140.4188889,
    "lgcode": "13331"
  },
  {
    "pid": "1",
    "pref": "北海道",
    "cid": "1334",
    "city": "木古内町",
    "citykana": "きこないちょう",
    "lat": 41.6783268,
    "lng": 140.4376294,
    "lgcode": "13340"
  },
  {
    "pid": "1",
    "pref": "北海道",
    "cid": "1337",
    "city": "七飯町",
    "citykana": "ななえちょう",
    "lat": 41.89571953,
    "lng": 140.6944054,
    "lgcode": "13374"
  },
  {
    "pid": "1",
    "pref": "北海道",
    "cid": "1343",
    "city": "鹿部町",
    "citykana": "しかべちょう",
    "lat": 42.026639,
    "lng": 140.831672,
    "lgcode": "13439"
  },
  {
    "pid": "1",
    "pref": "北海道",
    "cid": "1345",
    "city": "森町",
    "citykana": "もりまち",
    "lat": 42.10496108,
    "lng": 140.5764167,
    "lgcode": "13455"
  },
  {
    "pid": "1",
    "pref": "北海道",
    "cid": "1346",
    "city": "八雲町",
    "citykana": "やくもちょう",
    "lat": 42.25589383,
    "lng": 140.2651921,
    "lgcode": "13463"
  },
  {
    "pid": "1",
    "pref": "北海道",
    "cid": "1347",
    "city": "長万部町",
    "citykana": "おしゃまんべちょう",
    "lat": 42.51340337,
    "lng": 140.3801967,
    "lgcode": "13471"
  },
  {
    "pid": "1",
    "pref": "北海道",
    "cid": "1361",
    "city": "江差町",
    "citykana": "えさしちょう",
    "lat": 41.86928745,
    "lng": 140.1275909,
    "lgcode": "13617"
  },
  {
    "pid": "1",
    "pref": "北海道",
    "cid": "1362",
    "city": "上ノ国町",
    "citykana": "かみのくにちょう",
    "lat": 41.80111111,
    "lng": 140.1213889,
    "lgcode": "13625"
  },
  {
    "pid": "1",
    "pref": "北海道",
    "cid": "1363",
    "city": "厚沢部町",
    "citykana": "あっさぶちょう",
    "lat": 41.92094925,
    "lng": 140.2253619,
    "lgcode": "13633"
  },
  {
    "pid": "1",
    "pref": "北海道",
    "cid": "1364",
    "city": "乙部町",
    "citykana": "おとべちょう",
    "lat": 41.96854529,
    "lng": 140.1353881,
    "lgcode": "13641"
  },
  {
    "pid": "1",
    "pref": "北海道",
    "cid": "1367",
    "city": "奥尻町",
    "citykana": "おくしりちょう",
    "lat": 42.17228824,
    "lng": 139.5141374,
    "lgcode": "13676"
  },
  {
    "pid": "1",
    "pref": "北海道",
    "cid": "1370",
    "city": "今金町",
    "citykana": "いまかねちょう",
    "lat": 42.42937171,
    "lng": 140.0086423,
    "lgcode": "13706"
  },
  {
    "pid": "1",
    "pref": "北海道",
    "cid": "1371",
    "city": "せたな町",
    "citykana": "せたなちょう",
    "lat": 42.41694444,
    "lng": 139.8833333,
    "lgcode": "13714"
  },
  {
    "pid": "1",
    "pref": "北海道",
    "cid": "1391",
    "city": "島牧村",
    "citykana": "しままきむら",
    "lat": 42.70049649,
    "lng": 140.0615316,
    "lgcode": "13919"
  },
  {
    "pid": "1",
    "pref": "北海道",
    "cid": "1392",
    "city": "寿都町",
    "citykana": "すっつちょう",
    "lat": 42.7910538,
    "lng": 140.2288275,
    "lgcode": "13927"
  },
  {
    "pid": "1",
    "pref": "北海道",
    "cid": "1393",
    "city": "黒松内町",
    "citykana": "くろまつないちょう",
    "lat": 42.66777778,
    "lng": 140.3077778,
    "lgcode": "13935"
  },
  {
    "pid": "1",
    "pref": "北海道",
    "cid": "1394",
    "city": "蘭越町",
    "citykana": "らんこしちょう",
    "lat": 42.80923992,
    "lng": 140.5283803,
    "lgcode": "13943"
  },
  {
    "pid": "1",
    "pref": "北海道",
    "cid": "1395",
    "city": "ニセコ町",
    "citykana": "にせこちょう",
    "lat": 42.80480026,
    "lng": 140.6875294,
    "lgcode": "13951"
  },
  {
    "pid": "1",
    "pref": "北海道",
    "cid": "1396",
    "city": "真狩村",
    "citykana": "まっかりむら",
    "lat": 42.7630045,
    "lng": 140.8036719,
    "lgcode": "13960"
  },
  {
    "pid": "1",
    "pref": "北海道",
    "cid": "1397",
    "city": "留寿都村",
    "citykana": "るすつむら",
    "lat": 42.73730784,
    "lng": 140.8756242,
    "lgcode": "13978"
  },
  {
    "pid": "1",
    "pref": "北海道",
    "cid": "1398",
    "city": "喜茂別町",
    "citykana": "きもべつちょう",
    "lat": 42.79543379,
    "lng": 140.9345372,
    "lgcode": "13986"
  },
  {
    "pid": "1",
    "pref": "北海道",
    "cid": "1399",
    "city": "京極町",
    "citykana": "きょうごくちょう",
    "lat": 42.8582269,
    "lng": 140.8841146,
    "lgcode": "13994"
  },
  {
    "pid": "1",
    "pref": "北海道",
    "cid": "1400",
    "city": "倶知安町",
    "citykana": "くっちゃんちょう",
    "lat": 42.90171229,
    "lng": 140.7590211,
    "lgcode": "14001"
  },
  {
    "pid": "1",
    "pref": "北海道",
    "cid": "1401",
    "city": "共和町",
    "citykana": "きょうわちょう",
    "lat": 42.98040776,
    "lng": 140.6114265,
    "lgcode": "14010"
  },
  {
    "pid": "1",
    "pref": "北海道",
    "cid": "1402",
    "city": "岩内町",
    "citykana": "いわないちょう",
    "lat": 42.979761,
    "lng": 140.514773,
    "lgcode": "14028"
  },
  {
    "pid": "1",
    "pref": "北海道",
    "cid": "1403",
    "city": "泊村",
    "citykana": "とまりむら",
    "lat": 43.06300163,
    "lng": 140.4989034,
    "lgcode": "14036"
  },
  {
    "pid": "1",
    "pref": "北海道",
    "cid": "1404",
    "city": "神恵内村",
    "citykana": "かもえないむら",
    "lat": 43.14380532,
    "lng": 140.4309293,
    "lgcode": "14044"
  },
  {
    "pid": "1",
    "pref": "北海道",
    "cid": "1405",
    "city": "積丹町",
    "citykana": "しゃこたんちょう",
    "lat": 43.29874919,
    "lng": 140.5979824,
    "lgcode": "14052"
  },
  {
    "pid": "1",
    "pref": "北海道",
    "cid": "1406",
    "city": "古平町",
    "citykana": "ふるびらちょう",
    "lat": 43.26533414,
    "lng": 140.6389515,
    "lgcode": "14061"
  },
  {
    "pid": "1",
    "pref": "北海道",
    "cid": "1407",
    "city": "仁木町",
    "citykana": "にきちょう",
    "lat": 43.15166667,
    "lng": 140.7661111,
    "lgcode": "14079"
  },
  {
    "pid": "1",
    "pref": "北海道",
    "cid": "1408",
    "city": "余市町",
    "citykana": "よいちちょう",
    "lat": 43.19531756,
    "lng": 140.7835239,
    "lgcode": "14087"
  },
  {
    "pid": "1",
    "pref": "北海道",
    "cid": "1409",
    "city": "赤井川村",
    "citykana": "あかいがわむら",
    "lat": 43.08349202,
    "lng": 140.8136322,
    "lgcode": "14095"
  },
  {
    "pid": "1",
    "pref": "北海道",
    "cid": "1423",
    "city": "南幌町",
    "citykana": "なんぽろちょう",
    "lat": 43.06371295,
    "lng": 141.6502959,
    "lgcode": "14231"
  },
  {
    "pid": "1",
    "pref": "北海道",
    "cid": "1424",
    "city": "奈井江町",
    "citykana": "ないえちょう",
    "lat": 43.42527778,
    "lng": 141.8827778,
    "lgcode": "14249"
  },
  {
    "pid": "1",
    "pref": "北海道",
    "cid": "1425",
    "city": "上砂川町",
    "citykana": "かみすながわちょう",
    "lat": 43.482118,
    "lng": 141.9835294,
    "lgcode": "14257"
  },
  {
    "pid": "1",
    "pref": "北海道",
    "cid": "1427",
    "city": "由仁町",
    "citykana": "ゆにちょう",
    "lat": 42.99960678,
    "lng": 141.79028,
    "lgcode": "14273"
  },
  {
    "pid": "1",
    "pref": "北海道",
    "cid": "1428",
    "city": "長沼町",
    "citykana": "ながぬまちょう",
    "lat": 43.01036818,
    "lng": 141.6954173,
    "lgcode": "14281"
  },
  {
    "pid": "1",
    "pref": "北海道",
    "cid": "1429",
    "city": "栗山町",
    "citykana": "くりやまちょう",
    "lat": 43.05630081,
    "lng": 141.7840938,
    "lgcode": "14290"
  },
  {
    "pid": "1",
    "pref": "北海道",
    "cid": "1430",
    "city": "月形町",
    "citykana": "つきがたちょう",
    "lat": 43.33839288,
    "lng": 141.6695448,
    "lgcode": "14303"
  },
  {
    "pid": "1",
    "pref": "北海道",
    "cid": "1431",
    "city": "浦臼町",
    "citykana": "うらうすちょう",
    "lat": 43.43036951,
    "lng": 141.8187355,
    "lgcode": "14311"
  },
  {
    "pid": "1",
    "pref": "北海道",
    "cid": "1432",
    "city": "新十津川町",
    "citykana": "しんとつかわちょう",
    "lat": 43.54847601,
    "lng": 141.8770965,
    "lgcode": "14320"
  },
  {
    "pid": "1",
    "pref": "北海道",
    "cid": "1433",
    "city": "妹背牛町",
    "citykana": "もせうしちょう",
    "lat": 43.70017033,
    "lng": 141.9615052,
    "lgcode": "14338"
  },
  {
    "pid": "1",
    "pref": "北海道",
    "cid": "1434",
    "city": "秩父別町",
    "citykana": "ちっぷべつちょう",
    "lat": 43.76701307,
    "lng": 141.9578543,
    "lgcode": "14346"
  },
  {
    "pid": "1",
    "pref": "北海道",
    "cid": "1436",
    "city": "雨竜町",
    "citykana": "うりゅうちょう",
    "lat": 43.64396502,
    "lng": 141.8890417,
    "lgcode": "14362"
  },
  {
    "pid": "1",
    "pref": "北海道",
    "cid": "1437",
    "city": "北竜町",
    "citykana": "ほくりゅうちょう",
    "lat": 43.73138889,
    "lng": 141.8791667,
    "lgcode": "14371"
  },
  {
    "pid": "1",
    "pref": "北海道",
    "cid": "1438",
    "city": "沼田町",
    "citykana": "ぬまたちょう",
    "lat": 43.80670325,
    "lng": 141.9336905,
    "lgcode": "14389"
  },
  {
    "pid": "1",
    "pref": "北海道",
    "cid": "1452",
    "city": "鷹栖町",
    "citykana": "たかすちょう",
    "lat": 43.84333333,
    "lng": 142.3544444,
    "lgcode": "14524"
  },
  {
    "pid": "1",
    "pref": "北海道",
    "cid": "1453",
    "city": "東神楽町",
    "citykana": "ひがしかぐらちょう",
    "lat": 43.69638494,
    "lng": 142.4515003,
    "lgcode": "14532"
  },
  {
    "pid": "1",
    "pref": "北海道",
    "cid": "1454",
    "city": "当麻町",
    "citykana": "とうまちょう",
    "lat": 43.82813767,
    "lng": 142.5083928,
    "lgcode": "14541"
  },
  {
    "pid": "1",
    "pref": "北海道",
    "cid": "1455",
    "city": "比布町",
    "citykana": "ぴっぷちょう",
    "lat": 43.87500414,
    "lng": 142.4776752,
    "lgcode": "14559"
  },
  {
    "pid": "1",
    "pref": "北海道",
    "cid": "1456",
    "city": "愛別町",
    "citykana": "あいべつちょう",
    "lat": 43.90667341,
    "lng": 142.5778203,
    "lgcode": "14567"
  },
  {
    "pid": "1",
    "pref": "北海道",
    "cid": "1457",
    "city": "上川町",
    "citykana": "かみかわちょう",
    "lat": 43.84712409,
    "lng": 142.7704637,
    "lgcode": "14575"
  },
  {
    "pid": "1",
    "pref": "北海道",
    "cid": "1458",
    "city": "東川町",
    "citykana": "ひがしかわちょう",
    "lat": 43.6988984,
    "lng": 142.5101593,
    "lgcode": "14583"
  },
  {
    "pid": "1",
    "pref": "北海道",
    "cid": "1459",
    "city": "美瑛町",
    "citykana": "びえいちょう",
    "lat": 43.5883298,
    "lng": 142.4670597,
    "lgcode": "14591"
  },
  {
    "pid": "1",
    "pref": "北海道",
    "cid": "1460",
    "city": "上富良野町",
    "citykana": "かみふらのちょう",
    "lat": 43.45561409,
    "lng": 142.4671231,
    "lgcode": "14605"
  },
  {
    "pid": "1",
    "pref": "北海道",
    "cid": "1461",
    "city": "中富良野町",
    "citykana": "なかふらのちょう",
    "lat": 43.40583333,
    "lng": 142.4252778,
    "lgcode": "14613"
  },
  {
    "pid": "1",
    "pref": "北海道",
    "cid": "1462",
    "city": "南富良野町",
    "citykana": "みなみふらのちょう",
    "lat": 43.16416667,
    "lng": 142.5683333,
    "lgcode": "14621"
  },
  {
    "pid": "1",
    "pref": "北海道",
    "cid": "1463",
    "city": "占冠村",
    "citykana": "しむかっぷむら",
    "lat": 42.97987952,
    "lng": 142.3985363,
    "lgcode": "14630"
  },
  {
    "pid": "1",
    "pref": "北海道",
    "cid": "1464",
    "city": "和寒町",
    "citykana": "わっさむちょう",
    "lat": 44.02312874,
    "lng": 142.4134008,
    "lgcode": "14648"
  },
  {
    "pid": "1",
    "pref": "北海道",
    "cid": "1465",
    "city": "剣淵町",
    "citykana": "けんぶちちょう",
    "lat": 44.09576224,
    "lng": 142.3613267,
    "lgcode": "14656"
  },
  {
    "pid": "1",
    "pref": "北海道",
    "cid": "1468",
    "city": "下川町",
    "citykana": "しもかわちょう",
    "lat": 44.3025664,
    "lng": 142.6352023,
    "lgcode": "14681"
  },
  {
    "pid": "1",
    "pref": "北海道",
    "cid": "1469",
    "city": "美深町",
    "citykana": "びふかちょう",
    "lat": 44.48102079,
    "lng": 142.3430577,
    "lgcode": "14699"
  },
  {
    "pid": "1",
    "pref": "北海道",
    "cid": "1470",
    "city": "音威子府村",
    "citykana": "おといねっぷむら",
    "lat": 44.72504179,
    "lng": 142.2622139,
    "lgcode": "14702"
  },
  {
    "pid": "1",
    "pref": "北海道",
    "cid": "1471",
    "city": "中川町",
    "citykana": "なかがわちょう",
    "lat": 44.81138889,
    "lng": 142.0713889,
    "lgcode": "14711"
  },
  {
    "pid": "1",
    "pref": "北海道",
    "cid": "1472",
    "city": "幌加内町",
    "citykana": "ほろかないちょう",
    "lat": 44.00979823,
    "lng": 142.1538298,
    "lgcode": "14729"
  },
  {
    "pid": "1",
    "pref": "北海道",
    "cid": "1481",
    "city": "増毛町",
    "citykana": "ましけちょう",
    "lat": 43.85605933,
    "lng": 141.5249105,
    "lgcode": "14818"
  },
  {
    "pid": "1",
    "pref": "北海道",
    "cid": "1482",
    "city": "小平町",
    "citykana": "おびらちょう",
    "lat": 44.01546152,
    "lng": 141.6627616,
    "lgcode": "14826"
  },
  {
    "pid": "1",
    "pref": "北海道",
    "cid": "1483",
    "city": "苫前町",
    "citykana": "とままえちょう",
    "lat": 44.30614209,
    "lng": 141.6529088,
    "lgcode": "14834"
  },
  {
    "pid": "1",
    "pref": "北海道",
    "cid": "1484",
    "city": "羽幌町",
    "citykana": "はぼろちょう",
    "lat": 44.36054972,
    "lng": 141.6973205,
    "lgcode": "14842"
  },
  {
    "pid": "1",
    "pref": "北海道",
    "cid": "1485",
    "city": "初山別村",
    "citykana": "しょさんべつむら",
    "lat": 44.53214682,
    "lng": 141.7663169,
    "lgcode": "14851"
  },
  {
    "pid": "1",
    "pref": "北海道",
    "cid": "1486",
    "city": "遠別町",
    "citykana": "えんべつちょう",
    "lat": 44.7225084,
    "lng": 141.7923268,
    "lgcode": "14869"
  },
  {
    "pid": "1",
    "pref": "北海道",
    "cid": "1487",
    "city": "天塩町",
    "citykana": "てしおちょう",
    "lat": 44.88817257,
    "lng": 141.7453521,
    "lgcode": "14877"
  },
  {
    "pid": "1",
    "pref": "北海道",
    "cid": "1511",
    "city": "猿払村",
    "citykana": "さるふつむら",
    "lat": 45.3306092,
    "lng": 142.1089722,
    "lgcode": "15113"
  },
  {
    "pid": "1",
    "pref": "北海道",
    "cid": "1512",
    "city": "浜頓別町",
    "citykana": "はまとんべつちょう",
    "lat": 45.1237794,
    "lng": 142.3597348,
    "lgcode": "15121"
  },
  {
    "pid": "1",
    "pref": "北海道",
    "cid": "1513",
    "city": "中頓別町",
    "citykana": "なかとんべつちょう",
    "lat": 44.96976136,
    "lng": 142.2867365,
    "lgcode": "15130"
  },
  {
    "pid": "1",
    "pref": "北海道",
    "cid": "1514",
    "city": "枝幸町",
    "citykana": "えさしちょう",
    "lat": 44.93873333,
    "lng": 142.5814043,
    "lgcode": "15148"
  },
  {
    "pid": "1",
    "pref": "北海道",
    "cid": "1516",
    "city": "豊富町",
    "citykana": "とよとみちょう",
    "lat": 45.10285676,
    "lng": 141.7775026,
    "lgcode": "15164"
  },
  {
    "pid": "1",
    "pref": "北海道",
    "cid": "1517",
    "city": "礼文町",
    "citykana": "れぶんちょう",
    "lat": 45.30308199,
    "lng": 141.0477509,
    "lgcode": "15172"
  },
  {
    "pid": "1",
    "pref": "北海道",
    "cid": "1518",
    "city": "利尻町",
    "citykana": "りしりちょう",
    "lat": 45.18701663,
    "lng": 141.1395796,
    "lgcode": "15181"
  },
  {
    "pid": "1",
    "pref": "北海道",
    "cid": "1519",
    "city": "利尻富士町",
    "citykana": "りしりふじちょう",
    "lat": 45.2475,
    "lng": 141.2147222,
    "lgcode": "15199"
  },
  {
    "pid": "1",
    "pref": "北海道",
    "cid": "1520",
    "city": "幌延町",
    "citykana": "ほろのべちょう",
    "lat": 45.01777778,
    "lng": 141.8494444,
    "lgcode": "15202"
  },
  {
    "pid": "1",
    "pref": "北海道",
    "cid": "1543",
    "city": "美幌町",
    "citykana": "びほろちょう",
    "lat": 43.82371383,
    "lng": 144.1071991,
    "lgcode": "15431"
  },
  {
    "pid": "1",
    "pref": "北海道",
    "cid": "1544",
    "city": "津別町",
    "citykana": "つべつちょう",
    "lat": 43.70633069,
    "lng": 144.0248025,
    "lgcode": "15440"
  },
  {
    "pid": "1",
    "pref": "北海道",
    "cid": "1545",
    "city": "斜里町",
    "citykana": "しゃりちょう",
    "lat": 43.91138889,
    "lng": 144.6708333,
    "lgcode": "15458"
  },
  {
    "pid": "1",
    "pref": "北海道",
    "cid": "1546",
    "city": "清里町",
    "citykana": "きよさとちょう",
    "lat": 43.83523767,
    "lng": 144.5946817,
    "lgcode": "15466"
  },
  {
    "pid": "1",
    "pref": "北海道",
    "cid": "1547",
    "city": "小清水町",
    "citykana": "こしみずちょう",
    "lat": 43.85674521,
    "lng": 144.4620985,
    "lgcode": "15474"
  },
  {
    "pid": "1",
    "pref": "北海道",
    "cid": "1549",
    "city": "訓子府町",
    "citykana": "くんねっぷちょう",
    "lat": 43.72536829,
    "lng": 143.7416617,
    "lgcode": "15491"
  },
  {
    "pid": "1",
    "pref": "北海道",
    "cid": "1550",
    "city": "置戸町",
    "citykana": "おけとちょう",
    "lat": 43.67638889,
    "lng": 143.5863889,
    "lgcode": "15504"
  },
  {
    "pid": "1",
    "pref": "北海道",
    "cid": "1552",
    "city": "佐呂間町",
    "citykana": "さろまちょう",
    "lat": 44.01785206,
    "lng": 143.7747668,
    "lgcode": "15521"
  },
  {
    "pid": "1",
    "pref": "北海道",
    "cid": "1555",
    "city": "遠軽町",
    "citykana": "えんがるちょう",
    "lat": 44.06196432,
    "lng": 143.5280486,
    "lgcode": "15555"
  },
  {
    "pid": "1",
    "pref": "北海道",
    "cid": "1559",
    "city": "湧別町",
    "citykana": "ゆうべつちょう",
    "lat": 44.15160274,
    "lng": 143.573035,
    "lgcode": "15598"
  },
  {
    "pid": "1",
    "pref": "北海道",
    "cid": "1560",
    "city": "滝上町",
    "citykana": "たきのうえちょう",
    "lat": 44.19222222,
    "lng": 143.0777778,
    "lgcode": "15601"
  },
  {
    "pid": "1",
    "pref": "北海道",
    "cid": "1561",
    "city": "興部町",
    "citykana": "おこっぺちょう",
    "lat": 44.46985058,
    "lng": 143.1239513,
    "lgcode": "15610"
  },
  {
    "pid": "1",
    "pref": "北海道",
    "cid": "1562",
    "city": "西興部村",
    "citykana": "にしおこっぺむら",
    "lat": 44.32880793,
    "lng": 142.9444613,
    "lgcode": "15628"
  },
  {
    "pid": "1",
    "pref": "北海道",
    "cid": "1563",
    "city": "雄武町",
    "citykana": "おうむちょう",
    "lat": 44.58248425,
    "lng": 142.9618577,
    "lgcode": "15636"
  },
  {
    "pid": "1",
    "pref": "北海道",
    "cid": "1564",
    "city": "大空町",
    "citykana": "おおぞらちょう",
    "lat": 43.91194444,
    "lng": 144.1725,
    "lgcode": "15644"
  },
  {
    "pid": "1",
    "pref": "北海道",
    "cid": "1571",
    "city": "豊浦町",
    "citykana": "とようらちょう",
    "lat": 42.583409,
    "lng": 140.711966,
    "lgcode": "15717"
  },
  {
    "pid": "1",
    "pref": "北海道",
    "cid": "1575",
    "city": "壮瞥町",
    "citykana": "そうべつちょう",
    "lat": 42.55210949,
    "lng": 140.885836,
    "lgcode": "15750"
  },
  {
    "pid": "1",
    "pref": "北海道",
    "cid": "1578",
    "city": "白老町",
    "citykana": "しらおいちょう",
    "lat": 42.55131326,
    "lng": 141.3558661,
    "lgcode": "15784"
  },
  {
    "pid": "1",
    "pref": "北海道",
    "cid": "1581",
    "city": "厚真町",
    "citykana": "あつまちょう",
    "lat": 42.72363661,
    "lng": 141.8778914,
    "lgcode": "15814"
  },
  {
    "pid": "1",
    "pref": "北海道",
    "cid": "1584",
    "city": "洞爺湖町",
    "citykana": "とうやこちょう",
    "lat": 42.55111704,
    "lng": 140.7642741,
    "lgcode": "15849"
  },
  {
    "pid": "1",
    "pref": "北海道",
    "cid": "1585",
    "city": "安平町",
    "citykana": "あびらちょう",
    "lat": 42.76277778,
    "lng": 141.8180556,
    "lgcode": "15857"
  },
  {
    "pid": "1",
    "pref": "北海道",
    "cid": "1586",
    "city": "むかわ町",
    "citykana": "むかわちょう",
    "lat": 42.57474771,
    "lng": 141.9267449,
    "lgcode": "15865"
  },
  {
    "pid": "1",
    "pref": "北海道",
    "cid": "1601",
    "city": "日高町",
    "citykana": "ひだかちょう",
    "lat": 42.48033565,
    "lng": 142.0742968,
    "lgcode": "16012"
  },
  {
    "pid": "1",
    "pref": "北海道",
    "cid": "1602",
    "city": "平取町",
    "citykana": "びらとりちょう",
    "lat": 42.58514013,
    "lng": 142.1286988,
    "lgcode": "16021"
  },
  {
    "pid": "1",
    "pref": "北海道",
    "cid": "1604",
    "city": "新冠町",
    "citykana": "にいかっぷちょう",
    "lat": 42.36244309,
    "lng": 142.3184391,
    "lgcode": "16047"
  },
  {
    "pid": "1",
    "pref": "北海道",
    "cid": "1607",
    "city": "浦河町",
    "citykana": "うらかわちょう",
    "lat": 42.16834176,
    "lng": 142.7682026,
    "lgcode": "16071"
  },
  {
    "pid": "1",
    "pref": "北海道",
    "cid": "1608",
    "city": "様似町",
    "citykana": "さまにちょう",
    "lat": 42.12777778,
    "lng": 142.9338889,
    "lgcode": "16080"
  },
  {
    "pid": "1",
    "pref": "北海道",
    "cid": "1609",
    "city": "えりも町",
    "citykana": "えりもちょう",
    "lat": 42.01638889,
    "lng": 143.1483333,
    "lgcode": "16098"
  },
  {
    "pid": "1",
    "pref": "北海道",
    "cid": "1610",
    "city": "新ひだか町",
    "citykana": "しんひだかちょう",
    "lat": 42.34125547,
    "lng": 142.3686044,
    "lgcode": "16101"
  },
  {
    "pid": "1",
    "pref": "北海道",
    "cid": "1631",
    "city": "音更町",
    "citykana": "おとふけちょう",
    "lat": 42.99413757,
    "lng": 143.1978925,
    "lgcode": "16314"
  },
  {
    "pid": "1",
    "pref": "北海道",
    "cid": "1632",
    "city": "士幌町",
    "citykana": "しほろちょう",
    "lat": 43.16805004,
    "lng": 143.2414601,
    "lgcode": "16322"
  },
  {
    "pid": "1",
    "pref": "北海道",
    "cid": "1633",
    "city": "上士幌町",
    "citykana": "かみしほろちょう",
    "lat": 43.23263469,
    "lng": 143.2961787,
    "lgcode": "16331"
  },
  {
    "pid": "1",
    "pref": "北海道",
    "cid": "1634",
    "city": "鹿追町",
    "citykana": "しかおいちょう",
    "lat": 43.09887653,
    "lng": 142.9889704,
    "lgcode": "16349"
  },
  {
    "pid": "1",
    "pref": "北海道",
    "cid": "1635",
    "city": "新得町",
    "citykana": "しんとくちょう",
    "lat": 43.07975642,
    "lng": 142.8389096,
    "lgcode": "16357"
  },
  {
    "pid": "1",
    "pref": "北海道",
    "cid": "1636",
    "city": "清水町",
    "citykana": "しみずちょう",
    "lat": 43.01143823,
    "lng": 142.8845411,
    "lgcode": "16365"
  },
  {
    "pid": "1",
    "pref": "北海道",
    "cid": "1637",
    "city": "芽室町",
    "citykana": "めむろちょう",
    "lat": 42.91194444,
    "lng": 143.0508333,
    "lgcode": "16373"
  },
  {
    "pid": "1",
    "pref": "北海道",
    "cid": "1638",
    "city": "中札内村",
    "citykana": "なかさつないむら",
    "lat": 42.697864,
    "lng": 143.134395,
    "lgcode": "16381"
  },
  {
    "pid": "1",
    "pref": "北海道",
    "cid": "1639",
    "city": "更別村",
    "citykana": "さらべつむら",
    "lat": 42.65038621,
    "lng": 143.1878416,
    "lgcode": "16390"
  },
  {
    "pid": "1",
    "pref": "北海道",
    "cid": "1641",
    "city": "大樹町",
    "citykana": "たいきちょう",
    "lat": 42.4975,
    "lng": 143.2788889,
    "lgcode": "16411"
  },
  {
    "pid": "1",
    "pref": "北海道",
    "cid": "1642",
    "city": "広尾町",
    "citykana": "ひろおちょう",
    "lat": 42.28593132,
    "lng": 143.3116286,
    "lgcode": "16420"
  },
  {
    "pid": "1",
    "pref": "北海道",
    "cid": "1643",
    "city": "幕別町",
    "citykana": "まくべつちょう",
    "lat": 42.9082019,
    "lng": 143.3561006,
    "lgcode": "16438"
  },
  {
    "pid": "1",
    "pref": "北海道",
    "cid": "1644",
    "city": "池田町",
    "citykana": "いけだちょう",
    "lat": 42.92900742,
    "lng": 143.4485303,
    "lgcode": "16446"
  },
  {
    "pid": "1",
    "pref": "北海道",
    "cid": "1645",
    "city": "豊頃町",
    "citykana": "とよころちょう",
    "lat": 42.80102049,
    "lng": 143.5058896,
    "lgcode": "16454"
  },
  {
    "pid": "1",
    "pref": "北海道",
    "cid": "1646",
    "city": "本別町",
    "citykana": "ほんべつちょう",
    "lat": 43.12467344,
    "lng": 143.6105661,
    "lgcode": "16462"
  },
  {
    "pid": "1",
    "pref": "北海道",
    "cid": "1647",
    "city": "足寄町",
    "citykana": "あしょろちょう",
    "lat": 43.24480211,
    "lng": 143.5540526,
    "lgcode": "16471"
  },
  {
    "pid": "1",
    "pref": "北海道",
    "cid": "1648",
    "city": "陸別町",
    "citykana": "りくべつちょう",
    "lat": 43.46888889,
    "lng": 143.7472222,
    "lgcode": "16489"
  },
  {
    "pid": "1",
    "pref": "北海道",
    "cid": "1649",
    "city": "浦幌町",
    "citykana": "うらほろちょう",
    "lat": 42.80895698,
    "lng": 143.6585781,
    "lgcode": "16497"
  },
  {
    "pid": "1",
    "pref": "北海道",
    "cid": "1661",
    "city": "釧路町",
    "citykana": "くしろちょう",
    "lat": 42.99617231,
    "lng": 144.4660793,
    "lgcode": "16616"
  },
  {
    "pid": "1",
    "pref": "北海道",
    "cid": "1662",
    "city": "厚岸町",
    "citykana": "あっけしちょう",
    "lat": 43.05194444,
    "lng": 144.8475,
    "lgcode": "16624"
  },
  {
    "pid": "1",
    "pref": "北海道",
    "cid": "1663",
    "city": "浜中町",
    "citykana": "はまなかちょう",
    "lat": 43.076292,
    "lng": 145.130953,
    "lgcode": "16632"
  },
  {
    "pid": "1",
    "pref": "北海道",
    "cid": "1664",
    "city": "標茶町",
    "citykana": "しべちゃちょう",
    "lat": 43.30334699,
    "lng": 144.6006586,
    "lgcode": "16641"
  },
  {
    "pid": "1",
    "pref": "北海道",
    "cid": "1665",
    "city": "弟子屈町",
    "citykana": "てしかがちょう",
    "lat": 43.48521336,
    "lng": 144.4593251,
    "lgcode": "16659"
  },
  {
    "pid": "1",
    "pref": "北海道",
    "cid": "1667",
    "city": "鶴居村",
    "citykana": "つるいむら",
    "lat": 43.23007174,
    "lng": 144.3211866,
    "lgcode": "16675"
  },
  {
    "pid": "1",
    "pref": "北海道",
    "cid": "1668",
    "city": "白糠町",
    "citykana": "しらぬかちょう",
    "lat": 42.95616451,
    "lng": 144.0717316,
    "lgcode": "16683"
  },
  {
    "pid": "1",
    "pref": "北海道",
    "cid": "1691",
    "city": "別海町",
    "citykana": "べつかいちょう",
    "lat": 43.3940015,
    "lng": 145.1173283,
    "lgcode": "16918"
  },
  {
    "pid": "1",
    "pref": "北海道",
    "cid": "1692",
    "city": "中標津町",
    "citykana": "なかしべつちょう",
    "lat": 43.55520483,
    "lng": 144.971387,
    "lgcode": "16926"
  },
  {
    "pid": "1",
    "pref": "北海道",
    "cid": "1693",
    "city": "標津町",
    "citykana": "しべつちょう",
    "lat": 43.66126914,
    "lng": 145.1313251,
    "lgcode": "16934"
  },
  {
    "pid": "1",
    "pref": "北海道",
    "cid": "1694",
    "city": "羅臼町",
    "citykana": "らうすちょう",
    "lat": 44.02194444,
    "lng": 145.1894444,
    "lgcode": "16942"
  },
  {
    "pid": "2",
    "pref": "青森県",
    "cid": "2201",
    "city": "青森市",
    "citykana": "あおもりし",
    "lat": 40.82222222,
    "lng": 140.7475,
    "lgcode": "22012"
  },
  {
    "pid": "2",
    "pref": "青森県",
    "cid": "2202",
    "city": "弘前市",
    "citykana": "ひろさきし",
    "lat": 40.60305556,
    "lng": 140.4641667,
    "lgcode": "22021"
  },
  {
    "pid": "2",
    "pref": "青森県",
    "cid": "2203",
    "city": "八戸市",
    "citykana": "はちのへし",
    "lat": 40.51222222,
    "lng": 141.4883333,
    "lgcode": "22039"
  },
  {
    "pid": "2",
    "pref": "青森県",
    "cid": "2204",
    "city": "黒石市",
    "citykana": "くろいしし",
    "lat": 40.64277778,
    "lng": 140.5944444,
    "lgcode": "22047"
  },
  {
    "pid": "2",
    "pref": "青森県",
    "cid": "2205",
    "city": "五所川原市",
    "citykana": "ごしょがわらし",
    "lat": 40.807835,
    "lng": 140.446118,
    "lgcode": "22055"
  },
  {
    "pid": "2",
    "pref": "青森県",
    "cid": "2206",
    "city": "十和田市",
    "citykana": "とわだし",
    "lat": 40.61277778,
    "lng": 141.2058333,
    "lgcode": "22063"
  },
  {
    "pid": "2",
    "pref": "青森県",
    "cid": "2207",
    "city": "三沢市",
    "citykana": "みさわし",
    "lat": 40.68333333,
    "lng": 141.3688889,
    "lgcode": "22071"
  },
  {
    "pid": "2",
    "pref": "青森県",
    "cid": "2208",
    "city": "むつ市",
    "citykana": "むつし",
    "lat": 41.29305556,
    "lng": 141.1830556,
    "lgcode": "22080"
  },
  {
    "pid": "2",
    "pref": "青森県",
    "cid": "2209",
    "city": "つがる市",
    "citykana": "つがるし",
    "lat": 40.80888889,
    "lng": 140.38,
    "lgcode": "22098"
  },
  {
    "pid": "2",
    "pref": "青森県",
    "cid": "2210",
    "city": "平川市",
    "citykana": "ひらかわし",
    "lat": 40.58416667,
    "lng": 140.5663889,
    "lgcode": "22101"
  },
  {
    "pid": "2",
    "pref": "青森県",
    "cid": "2301",
    "city": "平内町",
    "citykana": "ひらないまち",
    "lat": 40.92611111,
    "lng": 140.9561111,
    "lgcode": "23019"
  },
  {
    "pid": "2",
    "pref": "青森県",
    "cid": "2303",
    "city": "今別町",
    "citykana": "いまべつまち",
    "lat": 41.18194444,
    "lng": 140.4816667,
    "lgcode": "23035"
  },
  {
    "pid": "2",
    "pref": "青森県",
    "cid": "2304",
    "city": "蓬田村",
    "citykana": "よもぎたむら",
    "lat": 40.97194444,
    "lng": 140.6558333,
    "lgcode": "23043"
  },
  {
    "pid": "2",
    "pref": "青森県",
    "cid": "2307",
    "city": "外ヶ浜町",
    "citykana": "そとがはままち",
    "lat": 41.04333333,
    "lng": 140.6325,
    "lgcode": "23078"
  },
  {
    "pid": "2",
    "pref": "青森県",
    "cid": "2321",
    "city": "鰺ヶ沢町",
    "citykana": "あじがさわまち",
    "lat": 40.783011,
    "lng": 140.233912,
    "lgcode": "23213"
  },
  {
    "pid": "2",
    "pref": "青森県",
    "cid": "2323",
    "city": "深浦町",
    "citykana": "ふかうらまち",
    "lat": 40.64805556,
    "lng": 139.9277778,
    "lgcode": "23230"
  },
  {
    "pid": "2",
    "pref": "青森県",
    "cid": "2343",
    "city": "西目屋村",
    "citykana": "にしめやむら",
    "lat": 40.57694444,
    "lng": 140.2963889,
    "lgcode": "23434"
  },
  {
    "pid": "2",
    "pref": "青森県",
    "cid": "2361",
    "city": "藤崎町",
    "citykana": "ふじさきまち",
    "lat": 40.65611111,
    "lng": 140.5025,
    "lgcode": "23612"
  },
  {
    "pid": "2",
    "pref": "青森県",
    "cid": "2362",
    "city": "大鰐町",
    "citykana": "おおわにまち",
    "lat": 40.51833333,
    "lng": 140.5677778,
    "lgcode": "23621"
  },
  {
    "pid": "2",
    "pref": "青森県",
    "cid": "2367",
    "city": "田舎館村",
    "citykana": "いなかだてむら",
    "lat": 40.63166667,
    "lng": 140.55,
    "lgcode": "23671"
  },
  {
    "pid": "2",
    "pref": "青森県",
    "cid": "2381",
    "city": "板柳町",
    "citykana": "いたやなぎまち",
    "lat": 40.69611111,
    "lng": 140.4575,
    "lgcode": "23817"
  },
  {
    "pid": "2",
    "pref": "青森県",
    "cid": "2384",
    "city": "鶴田町",
    "citykana": "つるたまち",
    "lat": 40.75888889,
    "lng": 140.4286111,
    "lgcode": "23841"
  },
  {
    "pid": "2",
    "pref": "青森県",
    "cid": "2387",
    "city": "中泊町",
    "citykana": "なかどまりまち",
    "lat": 40.960427,
    "lng": 140.434122,
    "lgcode": "23876"
  },
  {
    "pid": "2",
    "pref": "青森県",
    "cid": "2401",
    "city": "野辺地町",
    "citykana": "のへじまち",
    "lat": 40.86444444,
    "lng": 141.1286111,
    "lgcode": "24015"
  },
  {
    "pid": "2",
    "pref": "青森県",
    "cid": "2402",
    "city": "七戸町",
    "citykana": "しちのへまち",
    "lat": 40.74472222,
    "lng": 141.1577778,
    "lgcode": "24023"
  },
  {
    "pid": "2",
    "pref": "青森県",
    "cid": "2405",
    "city": "六戸町",
    "citykana": "ろくのへまち",
    "lat": 40.60972222,
    "lng": 141.3247222,
    "lgcode": "24058"
  },
  {
    "pid": "2",
    "pref": "青森県",
    "cid": "2406",
    "city": "横浜町",
    "citykana": "よこはままち",
    "lat": 41.08333333,
    "lng": 141.2475,
    "lgcode": "24066"
  },
  {
    "pid": "2",
    "pref": "青森県",
    "cid": "2408",
    "city": "東北町",
    "citykana": "とうほくまち",
    "lat": 40.72805556,
    "lng": 141.2577778,
    "lgcode": "24082"
  },
  {
    "pid": "2",
    "pref": "青森県",
    "cid": "2411",
    "city": "六ヶ所村",
    "citykana": "ろっかしょむら",
    "lat": 40.9675,
    "lng": 141.3744444,
    "lgcode": "24112"
  },
  {
    "pid": "2",
    "pref": "青森県",
    "cid": "2412",
    "city": "おいらせ町",
    "citykana": "おいらせちょう",
    "lat": 40.59916667,
    "lng": 141.3977778,
    "lgcode": "24121"
  },
  {
    "pid": "2",
    "pref": "青森県",
    "cid": "2423",
    "city": "大間町",
    "citykana": "おおままち",
    "lat": 41.522388,
    "lng": 140.90483,
    "lgcode": "24236"
  },
  {
    "pid": "2",
    "pref": "青森県",
    "cid": "2424",
    "city": "東通村",
    "citykana": "ひがしどおりむら",
    "lat": 41.27805556,
    "lng": 141.3294444,
    "lgcode": "24244"
  },
  {
    "pid": "2",
    "pref": "青森県",
    "cid": "2425",
    "city": "風間浦村",
    "citykana": "かざまうらむら",
    "lat": 41.4875,
    "lng": 140.9955556,
    "lgcode": "24252"
  },
  {
    "pid": "2",
    "pref": "青森県",
    "cid": "2426",
    "city": "佐井村",
    "citykana": "さいむら",
    "lat": 41.42972222,
    "lng": 140.8591667,
    "lgcode": "24261"
  },
  {
    "pid": "2",
    "pref": "青森県",
    "cid": "2441",
    "city": "三戸町",
    "citykana": "さんのへまち",
    "lat": 40.37833333,
    "lng": 141.2586111,
    "lgcode": "24414"
  },
  {
    "pid": "2",
    "pref": "青森県",
    "cid": "2442",
    "city": "五戸町",
    "citykana": "ごのへまち",
    "lat": 40.53111111,
    "lng": 141.3077778,
    "lgcode": "24422"
  },
  {
    "pid": "2",
    "pref": "青森県",
    "cid": "2443",
    "city": "田子町",
    "citykana": "たっこまち",
    "lat": 40.34,
    "lng": 141.1519444,
    "lgcode": "24431"
  },
  {
    "pid": "2",
    "pref": "青森県",
    "cid": "2445",
    "city": "南部町",
    "citykana": "なんぶちょう",
    "lat": 40.420343,
    "lng": 141.330307,
    "lgcode": "24457"
  },
  {
    "pid": "2",
    "pref": "青森県",
    "cid": "2446",
    "city": "階上町",
    "citykana": "はしかみちょう",
    "lat": 40.4525,
    "lng": 141.6211111,
    "lgcode": "24465"
  },
  {
    "pid": "2",
    "pref": "青森県",
    "cid": "2450",
    "city": "新郷村",
    "citykana": "しんごうむら",
    "lat": 40.46583333,
    "lng": 141.1733333,
    "lgcode": "24503"
  },
  {
    "pid": "3",
    "pref": "岩手県",
    "cid": "3201",
    "city": "盛岡市",
    "citykana": "もりおかし",
    "lat": 39.70194444,
    "lng": 141.1541667,
    "lgcode": "32018"
  },
  {
    "pid": "3",
    "pref": "岩手県",
    "cid": "3202",
    "city": "宮古市",
    "citykana": "みやこし",
    "lat": 39.639554,
    "lng": 141.946115,
    "lgcode": "32026"
  },
  {
    "pid": "3",
    "pref": "岩手県",
    "cid": "3203",
    "city": "大船渡市",
    "citykana": "おおふなとし",
    "lat": 39.08222222,
    "lng": 141.7083333,
    "lgcode": "32034"
  },
  {
    "pid": "3",
    "pref": "岩手県",
    "cid": "3205",
    "city": "花巻市",
    "citykana": "はなまきし",
    "lat": 39.38861111,
    "lng": 141.1166667,
    "lgcode": "32051"
  },
  {
    "pid": "3",
    "pref": "岩手県",
    "cid": "3206",
    "city": "北上市",
    "citykana": "きたかみし",
    "lat": 39.28666667,
    "lng": 141.1130556,
    "lgcode": "32069"
  },
  {
    "pid": "3",
    "pref": "岩手県",
    "cid": "3207",
    "city": "久慈市",
    "citykana": "くじし",
    "lat": 40.19027778,
    "lng": 141.7752778,
    "lgcode": "32077"
  },
  {
    "pid": "3",
    "pref": "岩手県",
    "cid": "3208",
    "city": "遠野市",
    "citykana": "とおのし",
    "lat": 39.331014,
    "lng": 141.532352,
    "lgcode": "32085"
  },
  {
    "pid": "3",
    "pref": "岩手県",
    "cid": "3209",
    "city": "一関市",
    "citykana": "いちのせきし",
    "lat": 38.93444444,
    "lng": 141.1263889,
    "lgcode": "32093"
  },
  {
    "pid": "3",
    "pref": "岩手県",
    "cid": "3210",
    "city": "陸前高田市",
    "citykana": "りくぜんたかたし",
    "lat": 39.020413,
    "lng": 141.633321,
    "lgcode": "32107"
  },
  {
    "pid": "3",
    "pref": "岩手県",
    "cid": "3211",
    "city": "釜石市",
    "citykana": "かまいしし",
    "lat": 39.27583333,
    "lng": 141.8855556,
    "lgcode": "32115"
  },
  {
    "pid": "3",
    "pref": "岩手県",
    "cid": "3213",
    "city": "二戸市",
    "citykana": "にのへし",
    "lat": 40.27111111,
    "lng": 141.3047222,
    "lgcode": "32131"
  },
  {
    "pid": "3",
    "pref": "岩手県",
    "cid": "3214",
    "city": "八幡平市",
    "citykana": "はちまんたいし",
    "lat": 39.956511,
    "lng": 141.07112,
    "lgcode": "32140"
  },
  {
    "pid": "3",
    "pref": "岩手県",
    "cid": "3215",
    "city": "奥州市",
    "citykana": "おうしゅうし",
    "lat": 39.14444444,
    "lng": 141.1388889,
    "lgcode": "32158"
  },
  {
    "pid": "3",
    "pref": "岩手県",
    "cid": "3216",
    "city": "滝沢市",
    "citykana": "たきざわし",
    "lat": 39.73472222,
    "lng": 141.0769444,
    "lgcode": "32166"
  },
  {
    "pid": "3",
    "pref": "岩手県",
    "cid": "3301",
    "city": "雫石町",
    "citykana": "しずくいしちょう",
    "lat": 39.69611111,
    "lng": 140.9755556,
    "lgcode": "33014"
  },
  {
    "pid": "3",
    "pref": "岩手県",
    "cid": "3302",
    "city": "葛巻町",
    "citykana": "くずまきまち",
    "lat": 40.03972222,
    "lng": 141.4363889,
    "lgcode": "33022"
  },
  {
    "pid": "3",
    "pref": "岩手県",
    "cid": "3303",
    "city": "岩手町",
    "citykana": "いわてまち",
    "lat": 39.9725,
    "lng": 141.2125,
    "lgcode": "33031"
  },
  {
    "pid": "3",
    "pref": "岩手県",
    "cid": "3321",
    "city": "紫波町",
    "citykana": "しわちょう",
    "lat": 39.554536,
    "lng": 141.155796,
    "lgcode": "33219"
  },
  {
    "pid": "3",
    "pref": "岩手県",
    "cid": "3322",
    "city": "矢巾町",
    "citykana": "やはばちょう",
    "lat": 39.60583333,
    "lng": 141.1430556,
    "lgcode": "33227"
  },
  {
    "pid": "3",
    "pref": "岩手県",
    "cid": "3366",
    "city": "西和賀町",
    "citykana": "にしわがまち",
    "lat": 39.31777778,
    "lng": 140.7791667,
    "lgcode": "33669"
  },
  {
    "pid": "3",
    "pref": "岩手県",
    "cid": "3381",
    "city": "金ケ崎町",
    "citykana": "かねがさきちょう",
    "lat": 39.19555556,
    "lng": 141.1161111,
    "lgcode": "33812"
  },
  {
    "pid": "3",
    "pref": "岩手県",
    "cid": "3402",
    "city": "平泉町",
    "citykana": "ひらいずみちょう",
    "lat": 38.98666667,
    "lng": 141.1141667,
    "lgcode": "34029"
  },
  {
    "pid": "3",
    "pref": "岩手県",
    "cid": "3441",
    "city": "住田町",
    "citykana": "すみたちょう",
    "lat": 39.14194444,
    "lng": 141.5758333,
    "lgcode": "34410"
  },
  {
    "pid": "3",
    "pref": "岩手県",
    "cid": "3461",
    "city": "大槌町",
    "citykana": "おおつちちょう",
    "lat": 39.358196,
    "lng": 141.899731,
    "lgcode": "34614"
  },
  {
    "pid": "3",
    "pref": "岩手県",
    "cid": "3482",
    "city": "山田町",
    "citykana": "やまだまち",
    "lat": 39.4675,
    "lng": 141.9488889,
    "lgcode": "34827"
  },
  {
    "pid": "3",
    "pref": "岩手県",
    "cid": "3483",
    "city": "岩泉町",
    "citykana": "いわいずみちょう",
    "lat": 39.84305556,
    "lng": 141.7966667,
    "lgcode": "34835"
  },
  {
    "pid": "3",
    "pref": "岩手県",
    "cid": "3484",
    "city": "田野畑村",
    "citykana": "たのはたむら",
    "lat": 39.93027778,
    "lng": 141.8888889,
    "lgcode": "34843"
  },
  {
    "pid": "3",
    "pref": "岩手県",
    "cid": "3485",
    "city": "普代村",
    "citykana": "ふだいむら",
    "lat": 40.00527778,
    "lng": 141.8861111,
    "lgcode": "34851"
  },
  {
    "pid": "3",
    "pref": "岩手県",
    "cid": "3501",
    "city": "軽米町",
    "citykana": "かるまいまち",
    "lat": 40.32666667,
    "lng": 141.4605556,
    "lgcode": "35017"
  },
  {
    "pid": "3",
    "pref": "岩手県",
    "cid": "3503",
    "city": "野田村",
    "citykana": "のだむら",
    "lat": 40.11,
    "lng": 141.8180556,
    "lgcode": "35033"
  },
  {
    "pid": "3",
    "pref": "岩手県",
    "cid": "3506",
    "city": "九戸村",
    "citykana": "くのへむら",
    "lat": 40.21138889,
    "lng": 141.4188889,
    "lgcode": "35068"
  },
  {
    "pid": "3",
    "pref": "岩手県",
    "cid": "3507",
    "city": "洋野町",
    "citykana": "ひろのちょう",
    "lat": 40.40861111,
    "lng": 141.7180556,
    "lgcode": "35076"
  },
  {
    "pid": "3",
    "pref": "岩手県",
    "cid": "3524",
    "city": "一戸町",
    "citykana": "いちのへまち",
    "lat": 40.21305556,
    "lng": 141.2952778,
    "lgcode": "35246"
  },
  {
    "pid": "4",
    "pref": "宮城県",
    "cid": "4100",
    "city": "仙台市",
    "citykana": "せんだいし",
    "lat": 38.26805556,
    "lng": 140.8697222,
    "lgcode": "41009"
  },
  {
    "pid": "4",
    "pref": "宮城県",
    "cid": "4101",
    "city": "仙台市 青葉区",
    "citykana": "せんだいし あおばく",
    "lat": 38.26916667,
    "lng": 140.8705556,
    "lgcode": "41017"
  },
  {
    "pid": "4",
    "pref": "宮城県",
    "cid": "4102",
    "city": "仙台市 宮城野区",
    "citykana": "せんだいし みやぎのく",
    "lat": 38.26638889,
    "lng": 140.9102778,
    "lgcode": "41025"
  },
  {
    "pid": "4",
    "pref": "宮城県",
    "cid": "4103",
    "city": "仙台市 若林区",
    "citykana": "せんだいし わかばやしく",
    "lat": 38.24416667,
    "lng": 140.9008333,
    "lgcode": "41033"
  },
  {
    "pid": "4",
    "pref": "宮城県",
    "cid": "4104",
    "city": "仙台市 太白区",
    "citykana": "せんだいし たいはくく",
    "lat": 38.22444444,
    "lng": 140.8772222,
    "lgcode": "41041"
  },
  {
    "pid": "4",
    "pref": "宮城県",
    "cid": "4105",
    "city": "仙台市 泉区",
    "citykana": "せんだいし いずみく",
    "lat": 38.32638889,
    "lng": 140.8813889,
    "lgcode": "41050"
  },
  {
    "pid": "4",
    "pref": "宮城県",
    "cid": "4202",
    "city": "石巻市",
    "citykana": "いしのまきし",
    "lat": 38.43416667,
    "lng": 141.3027778,
    "lgcode": "42021"
  },
  {
    "pid": "4",
    "pref": "宮城県",
    "cid": "4203",
    "city": "塩竈市",
    "citykana": "しおがまし",
    "lat": 38.31444444,
    "lng": 141.0222222,
    "lgcode": "42030"
  },
  {
    "pid": "4",
    "pref": "宮城県",
    "cid": "4205",
    "city": "気仙沼市",
    "citykana": "けせんぬまし",
    "lat": 38.90833333,
    "lng": 141.57,
    "lgcode": "42056"
  },
  {
    "pid": "4",
    "pref": "宮城県",
    "cid": "4206",
    "city": "白石市",
    "citykana": "しろいしし",
    "lat": 38.00222222,
    "lng": 140.6197222,
    "lgcode": "42064"
  },
  {
    "pid": "4",
    "pref": "宮城県",
    "cid": "4207",
    "city": "名取市",
    "citykana": "なとりし",
    "lat": 38.17166667,
    "lng": 140.8919444,
    "lgcode": "42072"
  },
  {
    "pid": "4",
    "pref": "宮城県",
    "cid": "4208",
    "city": "角田市",
    "citykana": "かくだし",
    "lat": 37.97722222,
    "lng": 140.7819444,
    "lgcode": "42081"
  },
  {
    "pid": "4",
    "pref": "宮城県",
    "cid": "4209",
    "city": "多賀城市",
    "citykana": "たがじょうし",
    "lat": 38.29388889,
    "lng": 141.0044444,
    "lgcode": "42099"
  },
  {
    "pid": "4",
    "pref": "宮城県",
    "cid": "4211",
    "city": "岩沼市",
    "citykana": "いわぬまし",
    "lat": 38.10444444,
    "lng": 140.87,
    "lgcode": "42111"
  },
  {
    "pid": "4",
    "pref": "宮城県",
    "cid": "4212",
    "city": "登米市",
    "citykana": "とめし",
    "lat": 38.69194444,
    "lng": 141.1877778,
    "lgcode": "42129"
  },
  {
    "pid": "4",
    "pref": "宮城県",
    "cid": "4213",
    "city": "栗原市",
    "citykana": "くりはらし",
    "lat": 38.73027778,
    "lng": 141.0213889,
    "lgcode": "42137"
  },
  {
    "pid": "4",
    "pref": "宮城県",
    "cid": "4214",
    "city": "東松島市",
    "citykana": "ひがしまつしまし",
    "lat": 38.42638889,
    "lng": 141.2105556,
    "lgcode": "42145"
  },
  {
    "pid": "4",
    "pref": "宮城県",
    "cid": "4215",
    "city": "大崎市",
    "citykana": "おおさきし",
    "lat": 38.57722222,
    "lng": 140.9555556,
    "lgcode": "42153"
  },
  {
    "pid": "4",
    "pref": "宮城県",
    "cid": "4216",
    "city": "富谷市",
    "citykana": "とみやし",
    "lat": 38.4,
    "lng": 140.8952778,
    "lgcode": "42161"
  },
  {
    "pid": "4",
    "pref": "宮城県",
    "cid": "4301",
    "city": "蔵王町",
    "citykana": "ざおうまち",
    "lat": 38.09805556,
    "lng": 140.6588889,
    "lgcode": "43010"
  },
  {
    "pid": "4",
    "pref": "宮城県",
    "cid": "4302",
    "city": "七ヶ宿町",
    "citykana": "しちかしゅくまち",
    "lat": 37.99305556,
    "lng": 140.4416667,
    "lgcode": "43028"
  },
  {
    "pid": "4",
    "pref": "宮城県",
    "cid": "4321",
    "city": "大河原町",
    "citykana": "おおがわらまち",
    "lat": 38.04944444,
    "lng": 140.7308333,
    "lgcode": "43214"
  },
  {
    "pid": "4",
    "pref": "宮城県",
    "cid": "4322",
    "city": "村田町",
    "citykana": "むらたまち",
    "lat": 38.11861111,
    "lng": 140.7225,
    "lgcode": "43222"
  },
  {
    "pid": "4",
    "pref": "宮城県",
    "cid": "4323",
    "city": "柴田町",
    "citykana": "しばたまち",
    "lat": 38.05638889,
    "lng": 140.7658333,
    "lgcode": "43231"
  },
  {
    "pid": "4",
    "pref": "宮城県",
    "cid": "4324",
    "city": "川崎町",
    "citykana": "かわさきまち",
    "lat": 38.17777778,
    "lng": 140.6436111,
    "lgcode": "43249"
  },
  {
    "pid": "4",
    "pref": "宮城県",
    "cid": "4341",
    "city": "丸森町",
    "citykana": "まるもりまち",
    "lat": 37.91138889,
    "lng": 140.7655556,
    "lgcode": "43419"
  },
  {
    "pid": "4",
    "pref": "宮城県",
    "cid": "4361",
    "city": "亘理町",
    "citykana": "わたりちょう",
    "lat": 38.044263,
    "lng": 140.867924,
    "lgcode": "43613"
  },
  {
    "pid": "4",
    "pref": "宮城県",
    "cid": "4362",
    "city": "山元町",
    "citykana": "やまもとちょう",
    "lat": 37.9625,
    "lng": 140.8777778,
    "lgcode": "43621"
  },
  {
    "pid": "4",
    "pref": "宮城県",
    "cid": "4401",
    "city": "松島町",
    "citykana": "まつしままち",
    "lat": 38.380149,
    "lng": 141.067291,
    "lgcode": "44016"
  },
  {
    "pid": "4",
    "pref": "宮城県",
    "cid": "4404",
    "city": "七ヶ浜町",
    "citykana": "しちがはままち",
    "lat": 38.30472222,
    "lng": 141.0594444,
    "lgcode": "44041"
  },
  {
    "pid": "4",
    "pref": "宮城県",
    "cid": "4406",
    "city": "利府町",
    "citykana": "りふちょう",
    "lat": 38.33027778,
    "lng": 140.9755556,
    "lgcode": "44067"
  },
  {
    "pid": "4",
    "pref": "宮城県",
    "cid": "4421",
    "city": "大和町",
    "citykana": "たいわちょう",
    "lat": 38.4375,
    "lng": 140.8863889,
    "lgcode": "44211"
  },
  {
    "pid": "4",
    "pref": "宮城県",
    "cid": "4422",
    "city": "大郷町",
    "citykana": "おおさとちょう",
    "lat": 38.42444444,
    "lng": 141.0044444,
    "lgcode": "44229"
  },
  {
    "pid": "4",
    "pref": "宮城県",
    "cid": "4424",
    "city": "大衡村",
    "citykana": "おおひらむら",
    "lat": 38.4675,
    "lng": 140.8802778,
    "lgcode": "44245"
  },
  {
    "pid": "4",
    "pref": "宮城県",
    "cid": "4444",
    "city": "色麻町",
    "citykana": "しかまちょう",
    "lat": 38.54888889,
    "lng": 140.85,
    "lgcode": "44440"
  },
  {
    "pid": "4",
    "pref": "宮城県",
    "cid": "4445",
    "city": "加美町",
    "citykana": "かみまち",
    "lat": 38.57194444,
    "lng": 140.855,
    "lgcode": "44458"
  },
  {
    "pid": "4",
    "pref": "宮城県",
    "cid": "4501",
    "city": "涌谷町",
    "citykana": "わくやちょう",
    "lat": 38.53972222,
    "lng": 141.1283333,
    "lgcode": "45012"
  },
  {
    "pid": "4",
    "pref": "宮城県",
    "cid": "4505",
    "city": "美里町",
    "citykana": "みさとまち",
    "lat": 38.54444444,
    "lng": 141.0569444,
    "lgcode": "45055"
  },
  {
    "pid": "4",
    "pref": "宮城県",
    "cid": "4581",
    "city": "女川町",
    "citykana": "おながわちょう",
    "lat": 38.445388,
    "lng": 141.442693,
    "lgcode": "45811"
  },
  {
    "pid": "4",
    "pref": "宮城県",
    "cid": "4606",
    "city": "南三陸町",
    "citykana": "みなみさんりくちょう",
    "lat": 38.680666,
    "lng": 141.462492,
    "lgcode": "46060"
  },
  {
    "pid": "5",
    "pref": "秋田県",
    "cid": "5201",
    "city": "秋田市",
    "citykana": "あきたし",
    "lat": 39.71972222,
    "lng": 140.1025,
    "lgcode": "52019"
  },
  {
    "pid": "5",
    "pref": "秋田県",
    "cid": "5202",
    "city": "能代市",
    "citykana": "のしろし",
    "lat": 40.21222222,
    "lng": 140.0266667,
    "lgcode": "52027"
  },
  {
    "pid": "5",
    "pref": "秋田県",
    "cid": "5203",
    "city": "横手市",
    "citykana": "よこてし",
    "lat": 39.313777,
    "lng": 140.566636,
    "lgcode": "52035"
  },
  {
    "pid": "5",
    "pref": "秋田県",
    "cid": "5204",
    "city": "大館市",
    "citykana": "おおだてし",
    "lat": 40.27166667,
    "lng": 140.5647222,
    "lgcode": "52043"
  },
  {
    "pid": "5",
    "pref": "秋田県",
    "cid": "5206",
    "city": "男鹿市",
    "citykana": "おがし",
    "lat": 39.88666667,
    "lng": 139.8477778,
    "lgcode": "52060"
  },
  {
    "pid": "5",
    "pref": "秋田県",
    "cid": "5207",
    "city": "湯沢市",
    "citykana": "ゆざわし",
    "lat": 39.16388889,
    "lng": 140.495,
    "lgcode": "52078"
  },
  {
    "pid": "5",
    "pref": "秋田県",
    "cid": "5209",
    "city": "鹿角市",
    "citykana": "かづのし",
    "lat": 40.21583333,
    "lng": 140.7883333,
    "lgcode": "52094"
  },
  {
    "pid": "5",
    "pref": "秋田県",
    "cid": "5210",
    "city": "由利本荘市",
    "citykana": "ゆりほんじょうし",
    "lat": 39.38583333,
    "lng": 140.0488889,
    "lgcode": "52108"
  },
  {
    "pid": "5",
    "pref": "秋田県",
    "cid": "5211",
    "city": "潟上市",
    "citykana": "かたがみし",
    "lat": 39.857288,
    "lng": 140.013049,
    "lgcode": "52116"
  },
  {
    "pid": "5",
    "pref": "秋田県",
    "cid": "5212",
    "city": "大仙市",
    "citykana": "だいせんし",
    "lat": 39.45305556,
    "lng": 140.4755556,
    "lgcode": "52124"
  },
  {
    "pid": "5",
    "pref": "秋田県",
    "cid": "5213",
    "city": "北秋田市",
    "citykana": "きたあきたし",
    "lat": 40.22611111,
    "lng": 140.3708333,
    "lgcode": "52132"
  },
  {
    "pid": "5",
    "pref": "秋田県",
    "cid": "5214",
    "city": "にかほ市",
    "citykana": "にかほし",
    "lat": 39.20305556,
    "lng": 139.9077778,
    "lgcode": "52141"
  },
  {
    "pid": "5",
    "pref": "秋田県",
    "cid": "5215",
    "city": "仙北市",
    "citykana": "せんぼくし",
    "lat": 39.7,
    "lng": 140.7305556,
    "lgcode": "52159"
  },
  {
    "pid": "5",
    "pref": "秋田県",
    "cid": "5303",
    "city": "小坂町",
    "citykana": "こさかまち",
    "lat": 40.332926,
    "lng": 140.736191,
    "lgcode": "53031"
  },
  {
    "pid": "5",
    "pref": "秋田県",
    "cid": "5327",
    "city": "上小阿仁村",
    "citykana": "かみこあにむら",
    "lat": 40.06333333,
    "lng": 140.2958333,
    "lgcode": "53279"
  },
  {
    "pid": "5",
    "pref": "秋田県",
    "cid": "5346",
    "city": "藤里町",
    "citykana": "ふじさとまち",
    "lat": 40.27833333,
    "lng": 140.2619444,
    "lgcode": "53465"
  },
  {
    "pid": "5",
    "pref": "秋田県",
    "cid": "5348",
    "city": "三種町",
    "citykana": "みたねちょう",
    "lat": 40.10166667,
    "lng": 140.005,
    "lgcode": "53481"
  },
  {
    "pid": "5",
    "pref": "秋田県",
    "cid": "5349",
    "city": "八峰町",
    "citykana": "はっぽうちょう",
    "lat": 40.31888889,
    "lng": 140.0386111,
    "lgcode": "53490"
  },
  {
    "pid": "5",
    "pref": "秋田県",
    "cid": "5361",
    "city": "五城目町",
    "citykana": "ごじょうめまち",
    "lat": 39.94416667,
    "lng": 140.1116667,
    "lgcode": "53619"
  },
  {
    "pid": "5",
    "pref": "秋田県",
    "cid": "5363",
    "city": "八郎潟町",
    "citykana": "はちろうがたまち",
    "lat": 39.94944444,
    "lng": 140.0733333,
    "lgcode": "53635"
  },
  {
    "pid": "5",
    "pref": "秋田県",
    "cid": "5366",
    "city": "井川町",
    "citykana": "いかわまち",
    "lat": 39.91416667,
    "lng": 140.0816667,
    "lgcode": "53660"
  },
  {
    "pid": "5",
    "pref": "秋田県",
    "cid": "5368",
    "city": "大潟村",
    "citykana": "おおがたむら",
    "lat": 40.01777778,
    "lng": 139.96,
    "lgcode": "53686"
  },
  {
    "pid": "5",
    "pref": "秋田県",
    "cid": "5434",
    "city": "美郷町",
    "citykana": "みさとちょう",
    "lat": 39.46166667,
    "lng": 140.5825,
    "lgcode": "54348"
  },
  {
    "pid": "5",
    "pref": "秋田県",
    "cid": "5463",
    "city": "羽後町",
    "citykana": "うごまち",
    "lat": 39.19944444,
    "lng": 140.4130556,
    "lgcode": "54631"
  },
  {
    "pid": "5",
    "pref": "秋田県",
    "cid": "5464",
    "city": "東成瀬村",
    "citykana": "ひがしなるせむら",
    "lat": 39.17888889,
    "lng": 140.6488889,
    "lgcode": "54640"
  },
  {
    "pid": "6",
    "pref": "山形県",
    "cid": "6201",
    "city": "山形市",
    "citykana": "やまがたし",
    "lat": 38.25555556,
    "lng": 140.3397222,
    "lgcode": "62014"
  },
  {
    "pid": "6",
    "pref": "山形県",
    "cid": "6202",
    "city": "米沢市",
    "citykana": "よねざわし",
    "lat": 37.92222222,
    "lng": 140.1169444,
    "lgcode": "62022"
  },
  {
    "pid": "6",
    "pref": "山形県",
    "cid": "6203",
    "city": "鶴岡市",
    "citykana": "つるおかし",
    "lat": 38.72722222,
    "lng": 139.8266667,
    "lgcode": "62031"
  },
  {
    "pid": "6",
    "pref": "山形県",
    "cid": "6204",
    "city": "酒田市",
    "citykana": "さかたし",
    "lat": 38.91444444,
    "lng": 139.8363889,
    "lgcode": "62049"
  },
  {
    "pid": "6",
    "pref": "山形県",
    "cid": "6205",
    "city": "新庄市",
    "citykana": "しんじょうし",
    "lat": 38.76472222,
    "lng": 140.3019444,
    "lgcode": "62057"
  },
  {
    "pid": "6",
    "pref": "山形県",
    "cid": "6206",
    "city": "寒河江市",
    "citykana": "さがえし",
    "lat": 38.38111111,
    "lng": 140.2761111,
    "lgcode": "62065"
  },
  {
    "pid": "6",
    "pref": "山形県",
    "cid": "6207",
    "city": "上山市",
    "citykana": "かみのやまし",
    "lat": 38.14972222,
    "lng": 140.2677778,
    "lgcode": "62073"
  },
  {
    "pid": "6",
    "pref": "山形県",
    "cid": "6208",
    "city": "村山市",
    "citykana": "むらやまし",
    "lat": 38.48361111,
    "lng": 140.3805556,
    "lgcode": "62081"
  },
  {
    "pid": "6",
    "pref": "山形県",
    "cid": "6209",
    "city": "長井市",
    "citykana": "ながいし",
    "lat": 38.106088,
    "lng": 140.033947,
    "lgcode": "62090"
  },
  {
    "pid": "6",
    "pref": "山形県",
    "cid": "6210",
    "city": "天童市",
    "citykana": "てんどうし",
    "lat": 38.36222222,
    "lng": 140.3783333,
    "lgcode": "62103"
  },
  {
    "pid": "6",
    "pref": "山形県",
    "cid": "6211",
    "city": "東根市",
    "citykana": "ひがしねし",
    "lat": 38.43138889,
    "lng": 140.3911111,
    "lgcode": "62111"
  },
  {
    "pid": "6",
    "pref": "山形県",
    "cid": "6212",
    "city": "尾花沢市",
    "citykana": "おばなざわし",
    "lat": 38.60083333,
    "lng": 140.4058333,
    "lgcode": "62120"
  },
  {
    "pid": "6",
    "pref": "山形県",
    "cid": "6213",
    "city": "南陽市",
    "citykana": "なんようし",
    "lat": 38.05527778,
    "lng": 140.1483333,
    "lgcode": "62138"
  },
  {
    "pid": "6",
    "pref": "山形県",
    "cid": "6301",
    "city": "山辺町",
    "citykana": "やまのべまち",
    "lat": 38.28916667,
    "lng": 140.2625,
    "lgcode": "63011"
  },
  {
    "pid": "6",
    "pref": "山形県",
    "cid": "6302",
    "city": "中山町",
    "citykana": "なかやままち",
    "lat": 38.33333333,
    "lng": 140.2830556,
    "lgcode": "63029"
  },
  {
    "pid": "6",
    "pref": "山形県",
    "cid": "6321",
    "city": "河北町",
    "citykana": "かほくちょう",
    "lat": 38.42638889,
    "lng": 140.3144444,
    "lgcode": "63215"
  },
  {
    "pid": "6",
    "pref": "山形県",
    "cid": "6322",
    "city": "西川町",
    "citykana": "にしかわまち",
    "lat": 38.42666667,
    "lng": 140.1477778,
    "lgcode": "63223"
  },
  {
    "pid": "6",
    "pref": "山形県",
    "cid": "6323",
    "city": "朝日町",
    "citykana": "あさひまち",
    "lat": 38.29916667,
    "lng": 140.1458333,
    "lgcode": "63231"
  },
  {
    "pid": "6",
    "pref": "山形県",
    "cid": "6324",
    "city": "大江町",
    "citykana": "おおえまち",
    "lat": 38.38083333,
    "lng": 140.2066667,
    "lgcode": "63240"
  },
  {
    "pid": "6",
    "pref": "山形県",
    "cid": "6341",
    "city": "大石田町",
    "citykana": "おおいしだまち",
    "lat": 38.59388889,
    "lng": 140.3727778,
    "lgcode": "63410"
  },
  {
    "pid": "6",
    "pref": "山形県",
    "cid": "6361",
    "city": "金山町",
    "citykana": "かねやままち",
    "lat": 38.88333333,
    "lng": 140.3394444,
    "lgcode": "63614"
  },
  {
    "pid": "6",
    "pref": "山形県",
    "cid": "6362",
    "city": "最上町",
    "citykana": "もがみまち",
    "lat": 38.75861111,
    "lng": 140.5194444,
    "lgcode": "63622"
  },
  {
    "pid": "6",
    "pref": "山形県",
    "cid": "6363",
    "city": "舟形町",
    "citykana": "ふながたまち",
    "lat": 38.69166667,
    "lng": 140.32,
    "lgcode": "63631"
  },
  {
    "pid": "6",
    "pref": "山形県",
    "cid": "6364",
    "city": "真室川町",
    "citykana": "まむろがわまち",
    "lat": 38.85777778,
    "lng": 140.2525,
    "lgcode": "63649"
  },
  {
    "pid": "6",
    "pref": "山形県",
    "cid": "6365",
    "city": "大蔵村",
    "citykana": "おおくらむら",
    "lat": 38.70416667,
    "lng": 140.2305556,
    "lgcode": "63657"
  },
  {
    "pid": "6",
    "pref": "山形県",
    "cid": "6366",
    "city": "鮭川村",
    "citykana": "さけがわむら",
    "lat": 38.79611111,
    "lng": 140.2216667,
    "lgcode": "63665"
  },
  {
    "pid": "6",
    "pref": "山形県",
    "cid": "6367",
    "city": "戸沢村",
    "citykana": "とざわむら",
    "lat": 38.73777778,
    "lng": 140.1436111,
    "lgcode": "63673"
  },
  {
    "pid": "6",
    "pref": "山形県",
    "cid": "6381",
    "city": "高畠町",
    "citykana": "たかはたまち",
    "lat": 38.00277778,
    "lng": 140.1891667,
    "lgcode": "63819"
  },
  {
    "pid": "6",
    "pref": "山形県",
    "cid": "6382",
    "city": "川西町",
    "citykana": "かわにしまち",
    "lat": 38.005203,
    "lng": 140.053181,
    "lgcode": "63827"
  },
  {
    "pid": "6",
    "pref": "山形県",
    "cid": "6401",
    "city": "小国町",
    "citykana": "おぐにまち",
    "lat": 38.06138889,
    "lng": 139.7433333,
    "lgcode": "64017"
  },
  {
    "pid": "6",
    "pref": "山形県",
    "cid": "6402",
    "city": "白鷹町",
    "citykana": "しらたかまち",
    "lat": 38.18305556,
    "lng": 140.0986111,
    "lgcode": "64025"
  },
  {
    "pid": "6",
    "pref": "山形県",
    "cid": "6403",
    "city": "飯豊町",
    "citykana": "いいでまち",
    "lat": 38.04583333,
    "lng": 139.9875,
    "lgcode": "64033"
  },
  {
    "pid": "6",
    "pref": "山形県",
    "cid": "6426",
    "city": "三川町",
    "citykana": "みかわまち",
    "lat": 38.79444444,
    "lng": 139.8497222,
    "lgcode": "64262"
  },
  {
    "pid": "6",
    "pref": "山形県",
    "cid": "6428",
    "city": "庄内町",
    "citykana": "しょうないまち",
    "lat": 38.84972222,
    "lng": 139.9047222,
    "lgcode": "64289"
  },
  {
    "pid": "6",
    "pref": "山形県",
    "cid": "6461",
    "city": "遊佐町",
    "citykana": "ゆざまち",
    "lat": 39.014836,
    "lng": 139.908662,
    "lgcode": "64611"
  },
  {
    "pid": "7",
    "pref": "福島県",
    "cid": "7201",
    "city": "福島市",
    "citykana": "ふくしまし",
    "lat": 37.76083333,
    "lng": 140.4747222,
    "lgcode": "72010"
  },
  {
    "pid": "7",
    "pref": "福島県",
    "cid": "7202",
    "city": "会津若松市",
    "citykana": "あいづわかまつし",
    "lat": 37.49472222,
    "lng": 139.9297222,
    "lgcode": "72028"
  },
  {
    "pid": "7",
    "pref": "福島県",
    "cid": "7203",
    "city": "郡山市",
    "citykana": "こおりやまし",
    "lat": 37.40055556,
    "lng": 140.3597222,
    "lgcode": "72036"
  },
  {
    "pid": "7",
    "pref": "福島県",
    "cid": "7204",
    "city": "いわき市",
    "citykana": "いわきし",
    "lat": 37.05055556,
    "lng": 140.8877778,
    "lgcode": "72044"
  },
  {
    "pid": "7",
    "pref": "福島県",
    "cid": "7205",
    "city": "白河市",
    "citykana": "しらかわし",
    "lat": 37.12638889,
    "lng": 140.2108333,
    "lgcode": "72052"
  },
  {
    "pid": "7",
    "pref": "福島県",
    "cid": "7207",
    "city": "須賀川市",
    "citykana": "すかがわし",
    "lat": 37.28666667,
    "lng": 140.3727778,
    "lgcode": "72079"
  },
  {
    "pid": "7",
    "pref": "福島県",
    "cid": "7208",
    "city": "喜多方市",
    "citykana": "きたかたし",
    "lat": 37.65111111,
    "lng": 139.8744444,
    "lgcode": "72087"
  },
  {
    "pid": "7",
    "pref": "福島県",
    "cid": "7209",
    "city": "相馬市",
    "citykana": "そうまし",
    "lat": 37.79666667,
    "lng": 140.9197222,
    "lgcode": "72095"
  },
  {
    "pid": "7",
    "pref": "福島県",
    "cid": "7210",
    "city": "二本松市",
    "citykana": "にほんまつし",
    "lat": 37.58472222,
    "lng": 140.4313889,
    "lgcode": "72109"
  },
  {
    "pid": "7",
    "pref": "福島県",
    "cid": "7211",
    "city": "田村市",
    "citykana": "たむらし",
    "lat": 37.440621,
    "lng": 140.57631,
    "lgcode": "72117"
  },
  {
    "pid": "7",
    "pref": "福島県",
    "cid": "7212",
    "city": "南相馬市",
    "citykana": "みなみそうまし",
    "lat": 37.64222222,
    "lng": 140.9572222,
    "lgcode": "72125"
  },
  {
    "pid": "7",
    "pref": "福島県",
    "cid": "7213",
    "city": "伊達市",
    "citykana": "だてし",
    "lat": 37.81888889,
    "lng": 140.5630556,
    "lgcode": "72133"
  },
  {
    "pid": "7",
    "pref": "福島県",
    "cid": "7214",
    "city": "本宮市",
    "citykana": "もとみやし",
    "lat": 37.51333333,
    "lng": 140.3938889,
    "lgcode": "72141"
  },
  {
    "pid": "7",
    "pref": "福島県",
    "cid": "7301",
    "city": "桑折町",
    "citykana": "こおりまち",
    "lat": 37.85472,
    "lng": 140.520851,
    "lgcode": "73016"
  },
  {
    "pid": "7",
    "pref": "福島県",
    "cid": "7303",
    "city": "国見町",
    "citykana": "くにみまち",
    "lat": 37.87694444,
    "lng": 140.5494444,
    "lgcode": "73032"
  },
  {
    "pid": "7",
    "pref": "福島県",
    "cid": "7308",
    "city": "川俣町",
    "citykana": "かわまたまち",
    "lat": 37.665,
    "lng": 140.5983333,
    "lgcode": "73083"
  },
  {
    "pid": "7",
    "pref": "福島県",
    "cid": "7322",
    "city": "大玉村",
    "citykana": "おおたまむら",
    "lat": 37.53444444,
    "lng": 140.3711111,
    "lgcode": "73229"
  },
  {
    "pid": "7",
    "pref": "福島県",
    "cid": "7342",
    "city": "鏡石町",
    "citykana": "かがみいしまち",
    "lat": 37.25277778,
    "lng": 140.3436111,
    "lgcode": "73423"
  },
  {
    "pid": "7",
    "pref": "福島県",
    "cid": "7344",
    "city": "天栄村",
    "citykana": "てんえいむら",
    "lat": 37.25527778,
    "lng": 140.2472222,
    "lgcode": "73440"
  },
  {
    "pid": "7",
    "pref": "福島県",
    "cid": "7362",
    "city": "下郷町",
    "citykana": "しもごうまち",
    "lat": 37.25555556,
    "lng": 139.8722222,
    "lgcode": "73628"
  },
  {
    "pid": "7",
    "pref": "福島県",
    "cid": "7364",
    "city": "檜枝岐村",
    "citykana": "ひのえまたむら",
    "lat": 37.02416667,
    "lng": 139.3888889,
    "lgcode": "73644"
  },
  {
    "pid": "7",
    "pref": "福島県",
    "cid": "7367",
    "city": "只見町",
    "citykana": "ただみまち",
    "lat": 37.34861111,
    "lng": 139.3158333,
    "lgcode": "73679"
  },
  {
    "pid": "7",
    "pref": "福島県",
    "cid": "7368",
    "city": "南会津町",
    "citykana": "みなみあいづまち",
    "lat": 37.20027778,
    "lng": 139.7733333,
    "lgcode": "73687"
  },
  {
    "pid": "7",
    "pref": "福島県",
    "cid": "7402",
    "city": "北塩原村",
    "citykana": "きたしおばらむら",
    "lat": 37.65583333,
    "lng": 139.9377778,
    "lgcode": "74021"
  },
  {
    "pid": "7",
    "pref": "福島県",
    "cid": "7405",
    "city": "西会津町",
    "citykana": "にしあいづまち",
    "lat": 37.587396,
    "lng": 139.649301,
    "lgcode": "74055"
  },
  {
    "pid": "7",
    "pref": "福島県",
    "cid": "7407",
    "city": "磐梯町",
    "citykana": "ばんだいまち",
    "lat": 37.56194444,
    "lng": 139.9883333,
    "lgcode": "74071"
  },
  {
    "pid": "7",
    "pref": "福島県",
    "cid": "7408",
    "city": "猪苗代町",
    "citykana": "いなわしろまち",
    "lat": 37.55777778,
    "lng": 140.1047222,
    "lgcode": "74080"
  },
  {
    "pid": "7",
    "pref": "福島県",
    "cid": "7421",
    "city": "会津坂下町",
    "citykana": "あいづばんげまち",
    "lat": 37.56138889,
    "lng": 139.8216667,
    "lgcode": "74217"
  },
  {
    "pid": "7",
    "pref": "福島県",
    "cid": "7422",
    "city": "湯川村",
    "citykana": "ゆがわむら",
    "lat": 37.56583333,
    "lng": 139.8866667,
    "lgcode": "74225"
  },
  {
    "pid": "7",
    "pref": "福島県",
    "cid": "7423",
    "city": "柳津町",
    "citykana": "やないづまち",
    "lat": 37.52611111,
    "lng": 139.7194444,
    "lgcode": "74233"
  },
  {
    "pid": "7",
    "pref": "福島県",
    "cid": "7444",
    "city": "三島町",
    "citykana": "みしままち",
    "lat": 37.47027778,
    "lng": 139.6444444,
    "lgcode": "74446"
  },
  {
    "pid": "7",
    "pref": "福島県",
    "cid": "7445",
    "city": "金山町",
    "citykana": "かねやままち",
    "lat": 37.45388889,
    "lng": 139.5247222,
    "lgcode": "74454"
  },
  {
    "pid": "7",
    "pref": "福島県",
    "cid": "7446",
    "city": "昭和村",
    "citykana": "しょうわむら",
    "lat": 37.33583333,
    "lng": 139.6105556,
    "lgcode": "74462"
  },
  {
    "pid": "7",
    "pref": "福島県",
    "cid": "7447",
    "city": "会津美里町",
    "citykana": "あいづみさとまち",
    "lat": 37.464985,
    "lng": 139.834177,
    "lgcode": "74471"
  },
  {
    "pid": "7",
    "pref": "福島県",
    "cid": "7461",
    "city": "西郷村",
    "citykana": "にしごうむら",
    "lat": 37.14194444,
    "lng": 140.1552778,
    "lgcode": "74616"
  },
  {
    "pid": "7",
    "pref": "福島県",
    "cid": "7464",
    "city": "泉崎村",
    "citykana": "いずみざきむら",
    "lat": 37.153784,
    "lng": 140.303363,
    "lgcode": "74641"
  },
  {
    "pid": "7",
    "pref": "福島県",
    "cid": "7465",
    "city": "中島村",
    "citykana": "なかじまむら",
    "lat": 37.14861111,
    "lng": 140.3502778,
    "lgcode": "74659"
  },
  {
    "pid": "7",
    "pref": "福島県",
    "cid": "7466",
    "city": "矢吹町",
    "citykana": "やぶきまち",
    "lat": 37.20111111,
    "lng": 140.3386111,
    "lgcode": "74667"
  },
  {
    "pid": "7",
    "pref": "福島県",
    "cid": "7481",
    "city": "棚倉町",
    "citykana": "たなぐらまち",
    "lat": 37.02972222,
    "lng": 140.3797222,
    "lgcode": "74811"
  },
  {
    "pid": "7",
    "pref": "福島県",
    "cid": "7482",
    "city": "矢祭町",
    "citykana": "やまつりまち",
    "lat": 36.87138889,
    "lng": 140.4247222,
    "lgcode": "74829"
  },
  {
    "pid": "7",
    "pref": "福島県",
    "cid": "7483",
    "city": "塙町",
    "citykana": "はなわまち",
    "lat": 36.95722222,
    "lng": 140.4097222,
    "lgcode": "74837"
  },
  {
    "pid": "7",
    "pref": "福島県",
    "cid": "7484",
    "city": "鮫川村",
    "citykana": "さめがわむら",
    "lat": 37.0425,
    "lng": 140.5097222,
    "lgcode": "74845"
  },
  {
    "pid": "7",
    "pref": "福島県",
    "cid": "7501",
    "city": "石川町",
    "citykana": "いしかわまち",
    "lat": 37.157072,
    "lng": 140.446775,
    "lgcode": "75019"
  },
  {
    "pid": "7",
    "pref": "福島県",
    "cid": "7502",
    "city": "玉川村",
    "citykana": "たまかわむら",
    "lat": 37.21083333,
    "lng": 140.4088889,
    "lgcode": "75027"
  },
  {
    "pid": "7",
    "pref": "福島県",
    "cid": "7503",
    "city": "平田村",
    "citykana": "ひらたむら",
    "lat": 37.221995,
    "lng": 140.575655,
    "lgcode": "75035"
  },
  {
    "pid": "7",
    "pref": "福島県",
    "cid": "7504",
    "city": "浅川町",
    "citykana": "あさかわまち",
    "lat": 37.08083333,
    "lng": 140.4127778,
    "lgcode": "75043"
  },
  {
    "pid": "7",
    "pref": "福島県",
    "cid": "7505",
    "city": "古殿町",
    "citykana": "ふるどのまち",
    "lat": 37.08916667,
    "lng": 140.5558333,
    "lgcode": "75051"
  },
  {
    "pid": "7",
    "pref": "福島県",
    "cid": "7521",
    "city": "三春町",
    "citykana": "みはるまち",
    "lat": 37.44111111,
    "lng": 140.4927778,
    "lgcode": "75213"
  },
  {
    "pid": "7",
    "pref": "福島県",
    "cid": "7522",
    "city": "小野町",
    "citykana": "おのまち",
    "lat": 37.28694444,
    "lng": 140.6263889,
    "lgcode": "75221"
  },
  {
    "pid": "7",
    "pref": "福島県",
    "cid": "7541",
    "city": "広野町",
    "citykana": "ひろのまち",
    "lat": 37.21444444,
    "lng": 140.9947222,
    "lgcode": "75418"
  },
  {
    "pid": "7",
    "pref": "福島県",
    "cid": "7542",
    "city": "楢葉町",
    "citykana": "ならはまち",
    "lat": 37.2825,
    "lng": 140.9936111,
    "lgcode": "75426"
  },
  {
    "pid": "7",
    "pref": "福島県",
    "cid": "7543",
    "city": "富岡町",
    "citykana": "とみおかまち",
    "lat": 37.34555556,
    "lng": 141.0086111,
    "lgcode": "75434"
  },
  {
    "pid": "7",
    "pref": "福島県",
    "cid": "7544",
    "city": "川内村",
    "citykana": "かわうちむら",
    "lat": 37.3375,
    "lng": 140.8094444,
    "lgcode": "75442"
  },
  {
    "pid": "7",
    "pref": "福島県",
    "cid": "7545",
    "city": "大熊町",
    "citykana": "おおくままち",
    "lat": 37.382087,
    "lng": 140.958264,
    "lgcode": "75451"
  },
  {
    "pid": "7",
    "pref": "福島県",
    "cid": "7546",
    "city": "双葉町",
    "citykana": "ふたばまち",
    "lat": 36.921861,
    "lng": 140.800626,
    "lgcode": "75469"
  },
  {
    "pid": "7",
    "pref": "福島県",
    "cid": "7547",
    "city": "浪江町",
    "citykana": "なみえまち",
    "lat": 37.49472222,
    "lng": 141.0008333,
    "lgcode": "75477"
  },
  {
    "pid": "7",
    "pref": "福島県",
    "cid": "7548",
    "city": "葛尾村",
    "citykana": "かつらおむら",
    "lat": 37.50361111,
    "lng": 140.7644444,
    "lgcode": "75485"
  },
  {
    "pid": "7",
    "pref": "福島県",
    "cid": "7561",
    "city": "新地町",
    "citykana": "しんちまち",
    "lat": 37.87611111,
    "lng": 140.9194444,
    "lgcode": "75612"
  },
  {
    "pid": "7",
    "pref": "福島県",
    "cid": "7564",
    "city": "飯舘村",
    "citykana": "いいたてむら",
    "lat": 37.67916667,
    "lng": 140.7355556,
    "lgcode": "75647"
  },
  {
    "pid": "8",
    "pref": "茨城県",
    "cid": "8201",
    "city": "水戸市",
    "citykana": "みとし",
    "lat": 36.36583333,
    "lng": 140.4713889,
    "lgcode": "82015"
  },
  {
    "pid": "8",
    "pref": "茨城県",
    "cid": "8202",
    "city": "日立市",
    "citykana": "ひたちし",
    "lat": 36.59916667,
    "lng": 140.6516667,
    "lgcode": "82023"
  },
  {
    "pid": "8",
    "pref": "茨城県",
    "cid": "8203",
    "city": "土浦市",
    "citykana": "つちうらし",
    "lat": 36.078391,
    "lng": 140.204143,
    "lgcode": "82031"
  },
  {
    "pid": "8",
    "pref": "茨城県",
    "cid": "8204",
    "city": "古河市",
    "citykana": "こがし",
    "lat": 36.17888889,
    "lng": 139.7558333,
    "lgcode": "82040"
  },
  {
    "pid": "8",
    "pref": "茨城県",
    "cid": "8205",
    "city": "石岡市",
    "citykana": "いしおかし",
    "lat": 36.19083333,
    "lng": 140.2872222,
    "lgcode": "82058"
  },
  {
    "pid": "8",
    "pref": "茨城県",
    "cid": "8207",
    "city": "結城市",
    "citykana": "ゆうきし",
    "lat": 36.289625,
    "lng": 139.87147,
    "lgcode": "82074"
  },
  {
    "pid": "8",
    "pref": "茨城県",
    "cid": "8208",
    "city": "龍ケ崎市",
    "citykana": "りゅうがさきし",
    "lat": 35.91166667,
    "lng": 140.1822222,
    "lgcode": "82082"
  },
  {
    "pid": "8",
    "pref": "茨城県",
    "cid": "8210",
    "city": "下妻市",
    "citykana": "しもつまし",
    "lat": 36.18444444,
    "lng": 139.9675,
    "lgcode": "82104"
  },
  {
    "pid": "8",
    "pref": "茨城県",
    "cid": "8211",
    "city": "常総市",
    "citykana": "じょうそうし",
    "lat": 36.02361111,
    "lng": 139.9938889,
    "lgcode": "82112"
  },
  {
    "pid": "8",
    "pref": "茨城県",
    "cid": "8212",
    "city": "常陸太田市",
    "citykana": "ひたちおおたし",
    "lat": 36.53833333,
    "lng": 140.5311111,
    "lgcode": "82121"
  },
  {
    "pid": "8",
    "pref": "茨城県",
    "cid": "8214",
    "city": "高萩市",
    "citykana": "たかはぎし",
    "lat": 36.71361111,
    "lng": 140.7097222,
    "lgcode": "82147"
  },
  {
    "pid": "8",
    "pref": "茨城県",
    "cid": "8215",
    "city": "北茨城市",
    "citykana": "きたいばらきし",
    "lat": 36.80194444,
    "lng": 140.7511111,
    "lgcode": "82155"
  },
  {
    "pid": "8",
    "pref": "茨城県",
    "cid": "8216",
    "city": "笠間市",
    "citykana": "かさまし",
    "lat": 36.345,
    "lng": 140.3041667,
    "lgcode": "82163"
  },
  {
    "pid": "8",
    "pref": "茨城県",
    "cid": "8217",
    "city": "取手市",
    "citykana": "とりでし",
    "lat": 35.91138889,
    "lng": 140.0502778,
    "lgcode": "82171"
  },
  {
    "pid": "8",
    "pref": "茨城県",
    "cid": "8219",
    "city": "牛久市",
    "citykana": "うしくし",
    "lat": 35.97944444,
    "lng": 140.1497222,
    "lgcode": "82198"
  },
  {
    "pid": "8",
    "pref": "茨城県",
    "cid": "8220",
    "city": "つくば市",
    "citykana": "つくばし",
    "lat": 36.08361111,
    "lng": 140.0763889,
    "lgcode": "82201"
  },
  {
    "pid": "8",
    "pref": "茨城県",
    "cid": "8221",
    "city": "ひたちなか市",
    "citykana": "ひたちなかし",
    "lat": 36.39638889,
    "lng": 140.5344444,
    "lgcode": "82210"
  },
  {
    "pid": "8",
    "pref": "茨城県",
    "cid": "8222",
    "city": "鹿嶋市",
    "citykana": "かしまし",
    "lat": 35.96583333,
    "lng": 140.645,
    "lgcode": "82228"
  },
  {
    "pid": "8",
    "pref": "茨城県",
    "cid": "8223",
    "city": "潮来市",
    "citykana": "いたこし",
    "lat": 35.94722222,
    "lng": 140.5552778,
    "lgcode": "82236"
  },
  {
    "pid": "8",
    "pref": "茨城県",
    "cid": "8224",
    "city": "守谷市",
    "citykana": "もりやし",
    "lat": 35.95138889,
    "lng": 139.9755556,
    "lgcode": "82244"
  },
  {
    "pid": "8",
    "pref": "茨城県",
    "cid": "8225",
    "city": "常陸大宮市",
    "citykana": "ひたちおおみやし",
    "lat": 36.5425,
    "lng": 140.4108333,
    "lgcode": "82252"
  },
  {
    "pid": "8",
    "pref": "茨城県",
    "cid": "8226",
    "city": "那珂市",
    "citykana": "なかし",
    "lat": 36.4575,
    "lng": 140.4866667,
    "lgcode": "82261"
  },
  {
    "pid": "8",
    "pref": "茨城県",
    "cid": "8227",
    "city": "筑西市",
    "citykana": "ちくせいし",
    "lat": 36.305263,
    "lng": 139.979417,
    "lgcode": "82279"
  },
  {
    "pid": "8",
    "pref": "茨城県",
    "cid": "8228",
    "city": "坂東市",
    "citykana": "ばんどうし",
    "lat": 36.04833333,
    "lng": 139.8888889,
    "lgcode": "82287"
  },
  {
    "pid": "8",
    "pref": "茨城県",
    "cid": "8229",
    "city": "稲敷市",
    "citykana": "いなしきし",
    "lat": 35.972927,
    "lng": 140.303583,
    "lgcode": "82295"
  },
  {
    "pid": "8",
    "pref": "茨城県",
    "cid": "8230",
    "city": "かすみがうら市",
    "citykana": "かすみがうらし",
    "lat": 36.15194444,
    "lng": 140.2372222,
    "lgcode": "82309"
  },
  {
    "pid": "8",
    "pref": "茨城県",
    "cid": "8231",
    "city": "桜川市",
    "citykana": "さくらがわし",
    "lat": 36.32722222,
    "lng": 140.0905556,
    "lgcode": "82317"
  },
  {
    "pid": "8",
    "pref": "茨城県",
    "cid": "8232",
    "city": "神栖市",
    "citykana": "かみすし",
    "lat": 35.89,
    "lng": 140.6647222,
    "lgcode": "82325"
  },
  {
    "pid": "8",
    "pref": "茨城県",
    "cid": "8233",
    "city": "行方市",
    "citykana": "なめがたし",
    "lat": 35.99027778,
    "lng": 140.4891667,
    "lgcode": "82333"
  },
  {
    "pid": "8",
    "pref": "茨城県",
    "cid": "8234",
    "city": "鉾田市",
    "citykana": "ほこたし",
    "lat": 36.15861111,
    "lng": 140.5163889,
    "lgcode": "82341"
  },
  {
    "pid": "8",
    "pref": "茨城県",
    "cid": "8235",
    "city": "つくばみらい市",
    "citykana": "つくばみらいし",
    "lat": 35.96305556,
    "lng": 140.0372222,
    "lgcode": "82350"
  },
  {
    "pid": "8",
    "pref": "茨城県",
    "cid": "8236",
    "city": "小美玉市",
    "citykana": "おみたまし",
    "lat": 36.23944444,
    "lng": 140.3525,
    "lgcode": "82368"
  },
  {
    "pid": "8",
    "pref": "茨城県",
    "cid": "8302",
    "city": "茨城町",
    "citykana": "いばらきまち",
    "lat": 36.28694444,
    "lng": 140.4247222,
    "lgcode": "83020"
  },
  {
    "pid": "8",
    "pref": "茨城県",
    "cid": "8309",
    "city": "大洗町",
    "citykana": "おおあらいまち",
    "lat": 36.31333333,
    "lng": 140.575,
    "lgcode": "83097"
  },
  {
    "pid": "8",
    "pref": "茨城県",
    "cid": "8310",
    "city": "城里町",
    "citykana": "しろさとまち",
    "lat": 36.47916667,
    "lng": 140.3763889,
    "lgcode": "83101"
  },
  {
    "pid": "8",
    "pref": "茨城県",
    "cid": "8341",
    "city": "東海村",
    "citykana": "とうかいむら",
    "lat": 36.47305556,
    "lng": 140.5661111,
    "lgcode": "83411"
  },
  {
    "pid": "8",
    "pref": "茨城県",
    "cid": "8364",
    "city": "大子町",
    "citykana": "だいごまち",
    "lat": 36.76805556,
    "lng": 140.3552778,
    "lgcode": "83640"
  },
  {
    "pid": "8",
    "pref": "茨城県",
    "cid": "8442",
    "city": "美浦村",
    "citykana": "みほむら",
    "lat": 36.00444444,
    "lng": 140.3019444,
    "lgcode": "84425"
  },
  {
    "pid": "8",
    "pref": "茨城県",
    "cid": "8443",
    "city": "阿見町",
    "citykana": "あみまち",
    "lat": 36.03083333,
    "lng": 140.215,
    "lgcode": "84433"
  },
  {
    "pid": "8",
    "pref": "茨城県",
    "cid": "8447",
    "city": "河内町",
    "citykana": "かわちまち",
    "lat": 35.88472222,
    "lng": 140.2444444,
    "lgcode": "84476"
  },
  {
    "pid": "8",
    "pref": "茨城県",
    "cid": "8521",
    "city": "八千代町",
    "citykana": "やちよまち",
    "lat": 36.18138889,
    "lng": 139.8913889,
    "lgcode": "85219"
  },
  {
    "pid": "8",
    "pref": "茨城県",
    "cid": "8542",
    "city": "五霞町",
    "citykana": "ごかまち",
    "lat": 36.11444444,
    "lng": 139.7452778,
    "lgcode": "85421"
  },
  {
    "pid": "8",
    "pref": "茨城県",
    "cid": "8546",
    "city": "境町",
    "citykana": "さかいまち",
    "lat": 36.10861111,
    "lng": 139.795,
    "lgcode": "85464"
  },
  {
    "pid": "8",
    "pref": "茨城県",
    "cid": "8564",
    "city": "利根町",
    "citykana": "とねまち",
    "lat": 35.85777778,
    "lng": 140.1394444,
    "lgcode": "85642"
  },
  {
    "pid": "9",
    "pref": "栃木県",
    "cid": "9201",
    "city": "宇都宮市",
    "citykana": "うつのみやし",
    "lat": 36.55527778,
    "lng": 139.8827778,
    "lgcode": "92011"
  },
  {
    "pid": "9",
    "pref": "栃木県",
    "cid": "9202",
    "city": "足利市",
    "citykana": "あしかがし",
    "lat": 36.34027778,
    "lng": 139.4497222,
    "lgcode": "92029"
  },
  {
    "pid": "9",
    "pref": "栃木県",
    "cid": "9203",
    "city": "栃木市",
    "citykana": "とちぎし",
    "lat": 36.382414,
    "lng": 139.734111,
    "lgcode": "92037"
  },
  {
    "pid": "9",
    "pref": "栃木県",
    "cid": "9204",
    "city": "佐野市",
    "citykana": "さのし",
    "lat": 36.31444444,
    "lng": 139.5783333,
    "lgcode": "92045"
  },
  {
    "pid": "9",
    "pref": "栃木県",
    "cid": "9205",
    "city": "鹿沼市",
    "citykana": "かぬまし",
    "lat": 36.56722222,
    "lng": 139.745,
    "lgcode": "92053"
  },
  {
    "pid": "9",
    "pref": "栃木県",
    "cid": "9206",
    "city": "日光市",
    "citykana": "にっこうし",
    "lat": 36.72,
    "lng": 139.6983333,
    "lgcode": "92061"
  },
  {
    "pid": "9",
    "pref": "栃木県",
    "cid": "9208",
    "city": "小山市",
    "citykana": "おやまし",
    "lat": 36.31472222,
    "lng": 139.8002778,
    "lgcode": "92088"
  },
  {
    "pid": "9",
    "pref": "栃木県",
    "cid": "9209",
    "city": "真岡市",
    "citykana": "もおかし",
    "lat": 36.44027778,
    "lng": 140.0130556,
    "lgcode": "92096"
  },
  {
    "pid": "9",
    "pref": "栃木県",
    "cid": "9210",
    "city": "大田原市",
    "citykana": "おおたわらし",
    "lat": 36.87083333,
    "lng": 140.0155556,
    "lgcode": "92100"
  },
  {
    "pid": "9",
    "pref": "栃木県",
    "cid": "9211",
    "city": "矢板市",
    "citykana": "やいたし",
    "lat": 36.80666667,
    "lng": 139.9241667,
    "lgcode": "92118"
  },
  {
    "pid": "9",
    "pref": "栃木県",
    "cid": "9213",
    "city": "那須塩原市",
    "citykana": "なすしおばらし",
    "lat": 36.96166667,
    "lng": 140.0461111,
    "lgcode": "92134"
  },
  {
    "pid": "9",
    "pref": "栃木県",
    "cid": "9214",
    "city": "さくら市",
    "citykana": "さくらし",
    "lat": 36.68527778,
    "lng": 139.9663889,
    "lgcode": "92142"
  },
  {
    "pid": "9",
    "pref": "栃木県",
    "cid": "9215",
    "city": "那須烏山市",
    "citykana": "なすからすやまし",
    "lat": 36.65694444,
    "lng": 140.1516667,
    "lgcode": "92151"
  },
  {
    "pid": "9",
    "pref": "栃木県",
    "cid": "9216",
    "city": "下野市",
    "citykana": "しもつけし",
    "lat": 36.395227,
    "lng": 139.85192,
    "lgcode": "92169"
  },
  {
    "pid": "9",
    "pref": "栃木県",
    "cid": "9301",
    "city": "上三川町",
    "citykana": "かみのかわまち",
    "lat": 36.43916667,
    "lng": 139.91,
    "lgcode": "93017"
  },
  {
    "pid": "9",
    "pref": "栃木県",
    "cid": "9342",
    "city": "益子町",
    "citykana": "ましこまち",
    "lat": 36.4675,
    "lng": 140.0930556,
    "lgcode": "93424"
  },
  {
    "pid": "9",
    "pref": "栃木県",
    "cid": "9343",
    "city": "茂木町",
    "citykana": "もてぎまち",
    "lat": 36.53222222,
    "lng": 140.1875,
    "lgcode": "93432"
  },
  {
    "pid": "9",
    "pref": "栃木県",
    "cid": "9344",
    "city": "市貝町",
    "citykana": "いちかいまち",
    "lat": 36.54333333,
    "lng": 140.1022222,
    "lgcode": "93441"
  },
  {
    "pid": "9",
    "pref": "栃木県",
    "cid": "9345",
    "city": "芳賀町",
    "citykana": "はがまち",
    "lat": 36.54805556,
    "lng": 140.0580556,
    "lgcode": "93459"
  },
  {
    "pid": "9",
    "pref": "栃木県",
    "cid": "9361",
    "city": "壬生町",
    "citykana": "みぶまち",
    "lat": 36.42722222,
    "lng": 139.8038889,
    "lgcode": "93611"
  },
  {
    "pid": "9",
    "pref": "栃木県",
    "cid": "9364",
    "city": "野木町",
    "citykana": "のぎまち",
    "lat": 36.23305556,
    "lng": 139.7408333,
    "lgcode": "93645"
  },
  {
    "pid": "9",
    "pref": "栃木県",
    "cid": "9384",
    "city": "塩谷町",
    "citykana": "しおやまち",
    "lat": 36.7775,
    "lng": 139.8505556,
    "lgcode": "93840"
  },
  {
    "pid": "9",
    "pref": "栃木県",
    "cid": "9386",
    "city": "高根沢町",
    "citykana": "たかねざわまち",
    "lat": 36.63111111,
    "lng": 139.9866667,
    "lgcode": "93866"
  },
  {
    "pid": "9",
    "pref": "栃木県",
    "cid": "9407",
    "city": "那須町",
    "citykana": "なすまち",
    "lat": 37.01972222,
    "lng": 140.1211111,
    "lgcode": "94072"
  },
  {
    "pid": "9",
    "pref": "栃木県",
    "cid": "9411",
    "city": "那珂川町",
    "citykana": "なかがわまち",
    "lat": 36.736223,
    "lng": 140.17282,
    "lgcode": "94111"
  },
  {
    "pid": "10",
    "pref": "群馬県",
    "cid": "10201",
    "city": "前橋市",
    "citykana": "まえばしし",
    "lat": 36.38916667,
    "lng": 139.0636111,
    "lgcode": "102016"
  },
  {
    "pid": "10",
    "pref": "群馬県",
    "cid": "10202",
    "city": "高崎市",
    "citykana": "たかさきし",
    "lat": 36.32194444,
    "lng": 139.0036111,
    "lgcode": "102024"
  },
  {
    "pid": "10",
    "pref": "群馬県",
    "cid": "10203",
    "city": "桐生市",
    "citykana": "きりゅうし",
    "lat": 36.40527778,
    "lng": 139.3305556,
    "lgcode": "102032"
  },
  {
    "pid": "10",
    "pref": "群馬県",
    "cid": "10204",
    "city": "伊勢崎市",
    "citykana": "いせさきし",
    "lat": 36.31138889,
    "lng": 139.1966667,
    "lgcode": "102041"
  },
  {
    "pid": "10",
    "pref": "群馬県",
    "cid": "10205",
    "city": "太田市",
    "citykana": "おおたし",
    "lat": 36.29166667,
    "lng": 139.3758333,
    "lgcode": "102059"
  },
  {
    "pid": "10",
    "pref": "群馬県",
    "cid": "10206",
    "city": "沼田市",
    "citykana": "ぬまたし",
    "lat": 36.64396,
    "lng": 139.042784,
    "lgcode": "102067"
  },
  {
    "pid": "10",
    "pref": "群馬県",
    "cid": "10207",
    "city": "館林市",
    "citykana": "たてばやしし",
    "lat": 36.245,
    "lng": 139.5422222,
    "lgcode": "102075"
  },
  {
    "pid": "10",
    "pref": "群馬県",
    "cid": "10208",
    "city": "渋川市",
    "citykana": "しぶかわし",
    "lat": 36.48944444,
    "lng": 139.0005556,
    "lgcode": "102083"
  },
  {
    "pid": "10",
    "pref": "群馬県",
    "cid": "10209",
    "city": "藤岡市",
    "citykana": "ふじおかし",
    "lat": 36.25861111,
    "lng": 139.0747222,
    "lgcode": "102091"
  },
  {
    "pid": "10",
    "pref": "群馬県",
    "cid": "10210",
    "city": "富岡市",
    "citykana": "とみおかし",
    "lat": 36.26,
    "lng": 138.89,
    "lgcode": "102105"
  },
  {
    "pid": "10",
    "pref": "群馬県",
    "cid": "10211",
    "city": "安中市",
    "citykana": "あんなかし",
    "lat": 36.32638889,
    "lng": 138.8872222,
    "lgcode": "102113"
  },
  {
    "pid": "10",
    "pref": "群馬県",
    "cid": "10212",
    "city": "みどり市",
    "citykana": "みどりし",
    "lat": 36.39472222,
    "lng": 139.2811111,
    "lgcode": "102121"
  },
  {
    "pid": "10",
    "pref": "群馬県",
    "cid": "10344",
    "city": "榛東村",
    "citykana": "しんとうむら",
    "lat": 36.438647,
    "lng": 138.967118,
    "lgcode": "103446"
  },
  {
    "pid": "10",
    "pref": "群馬県",
    "cid": "10345",
    "city": "吉岡町",
    "citykana": "よしおかまち",
    "lat": 36.4475,
    "lng": 139.0102778,
    "lgcode": "103454"
  },
  {
    "pid": "10",
    "pref": "群馬県",
    "cid": "10366",
    "city": "上野村",
    "citykana": "うえのむら",
    "lat": 36.08333333,
    "lng": 138.7772222,
    "lgcode": "103667"
  },
  {
    "pid": "10",
    "pref": "群馬県",
    "cid": "10367",
    "city": "神流町",
    "citykana": "かんなまち",
    "lat": 36.11611111,
    "lng": 138.9169444,
    "lgcode": "103675"
  },
  {
    "pid": "10",
    "pref": "群馬県",
    "cid": "10382",
    "city": "下仁田町",
    "citykana": "しもにたまち",
    "lat": 36.2125,
    "lng": 138.7891667,
    "lgcode": "103829"
  },
  {
    "pid": "10",
    "pref": "群馬県",
    "cid": "10383",
    "city": "南牧村",
    "citykana": "なんもくむら",
    "lat": 36.15861111,
    "lng": 138.7113889,
    "lgcode": "103837"
  },
  {
    "pid": "10",
    "pref": "群馬県",
    "cid": "10384",
    "city": "甘楽町",
    "citykana": "かんらまち",
    "lat": 36.24305556,
    "lng": 138.9219444,
    "lgcode": "103845"
  },
  {
    "pid": "10",
    "pref": "群馬県",
    "cid": "10421",
    "city": "中之条町",
    "citykana": "なかのじょうまち",
    "lat": 36.59,
    "lng": 138.8411111,
    "lgcode": "104213"
  },
  {
    "pid": "10",
    "pref": "群馬県",
    "cid": "10424",
    "city": "長野原町",
    "citykana": "ながのはらまち",
    "lat": 36.544321,
    "lng": 138.649837,
    "lgcode": "104248"
  },
  {
    "pid": "10",
    "pref": "群馬県",
    "cid": "10425",
    "city": "嬬恋村",
    "citykana": "つまごいむら",
    "lat": 36.51666667,
    "lng": 138.5302778,
    "lgcode": "104256"
  },
  {
    "pid": "10",
    "pref": "群馬県",
    "cid": "10426",
    "city": "草津町",
    "citykana": "くさつまち",
    "lat": 36.62055556,
    "lng": 138.5961111,
    "lgcode": "104264"
  },
  {
    "pid": "10",
    "pref": "群馬県",
    "cid": "10428",
    "city": "高山村",
    "citykana": "たかやまむら",
    "lat": 36.62083333,
    "lng": 138.9436111,
    "lgcode": "104281"
  },
  {
    "pid": "10",
    "pref": "群馬県",
    "cid": "10429",
    "city": "東吾妻町",
    "citykana": "ひがしあがつままち",
    "lat": 36.571564,
    "lng": 138.820571,
    "lgcode": "104299"
  },
  {
    "pid": "10",
    "pref": "群馬県",
    "cid": "10443",
    "city": "片品村",
    "citykana": "かたしなむら",
    "lat": 36.7725,
    "lng": 139.2252778,
    "lgcode": "104434"
  },
  {
    "pid": "10",
    "pref": "群馬県",
    "cid": "10444",
    "city": "川場村",
    "citykana": "かわばむら",
    "lat": 36.69472222,
    "lng": 139.1066667,
    "lgcode": "104442"
  },
  {
    "pid": "10",
    "pref": "群馬県",
    "cid": "10448",
    "city": "昭和村",
    "citykana": "しょうわむら",
    "lat": 36.63972222,
    "lng": 139.0658333,
    "lgcode": "104485"
  },
  {
    "pid": "10",
    "pref": "群馬県",
    "cid": "10449",
    "city": "みなかみ町",
    "citykana": "みなかみまち",
    "lat": 36.67888889,
    "lng": 138.9991667,
    "lgcode": "104493"
  },
  {
    "pid": "10",
    "pref": "群馬県",
    "cid": "10464",
    "city": "玉村町",
    "citykana": "たまむらまち",
    "lat": 36.30444444,
    "lng": 139.115,
    "lgcode": "104647"
  },
  {
    "pid": "10",
    "pref": "群馬県",
    "cid": "10521",
    "city": "板倉町",
    "citykana": "いたくらまち",
    "lat": 36.225962,
    "lng": 139.601938,
    "lgcode": "105210"
  },
  {
    "pid": "10",
    "pref": "群馬県",
    "cid": "10522",
    "city": "明和町",
    "citykana": "めいわまち",
    "lat": 36.21138889,
    "lng": 139.5341667,
    "lgcode": "105228"
  },
  {
    "pid": "10",
    "pref": "群馬県",
    "cid": "10523",
    "city": "千代田町",
    "citykana": "ちよだまち",
    "lat": 36.21777778,
    "lng": 139.4425,
    "lgcode": "105236"
  },
  {
    "pid": "10",
    "pref": "群馬県",
    "cid": "10524",
    "city": "大泉町",
    "citykana": "おおいずみまち",
    "lat": 36.24777778,
    "lng": 139.405,
    "lgcode": "105244"
  },
  {
    "pid": "10",
    "pref": "群馬県",
    "cid": "10525",
    "city": "邑楽町",
    "citykana": "おうらまち",
    "lat": 36.2525,
    "lng": 139.4625,
    "lgcode": "105252"
  },
  {
    "pid": "11",
    "pref": "埼玉県",
    "cid": "11100",
    "city": "さいたま市",
    "citykana": "さいたまし",
    "lat": 35.86166667,
    "lng": 139.6452778,
    "lgcode": "111007"
  },
  {
    "pid": "11",
    "pref": "埼玉県",
    "cid": "11101",
    "city": "さいたま市 西区",
    "citykana": "さいたまし にしく",
    "lat": 35.925,
    "lng": 139.5797222,
    "lgcode": "111015"
  },
  {
    "pid": "11",
    "pref": "埼玉県",
    "cid": "11102",
    "city": "さいたま市 北区",
    "citykana": "さいたまし きたく",
    "lat": 35.93083333,
    "lng": 139.62,
    "lgcode": "111023"
  },
  {
    "pid": "11",
    "pref": "埼玉県",
    "cid": "11103",
    "city": "さいたま市 大宮区",
    "citykana": "さいたまし おおみやく",
    "lat": 35.90611111,
    "lng": 139.6286111,
    "lgcode": "111031"
  },
  {
    "pid": "11",
    "pref": "埼玉県",
    "cid": "11104",
    "city": "さいたま市 見沼区",
    "citykana": "さいたまし みぬまく",
    "lat": 35.93527778,
    "lng": 139.6544444,
    "lgcode": "111040"
  },
  {
    "pid": "11",
    "pref": "埼玉県",
    "cid": "11105",
    "city": "さいたま市 中央区",
    "citykana": "さいたまし ちゅうおうく",
    "lat": 35.88388889,
    "lng": 139.6261111,
    "lgcode": "111058"
  },
  {
    "pid": "11",
    "pref": "埼玉県",
    "cid": "11106",
    "city": "さいたま市 桜区",
    "citykana": "さいたまし さくらく",
    "lat": 35.85694444,
    "lng": 139.6094444,
    "lgcode": "111066"
  },
  {
    "pid": "11",
    "pref": "埼玉県",
    "cid": "11107",
    "city": "さいたま市 浦和区",
    "citykana": "さいたまし うらわく",
    "lat": 35.86166667,
    "lng": 139.6452778,
    "lgcode": "111074"
  },
  {
    "pid": "11",
    "pref": "埼玉県",
    "cid": "11108",
    "city": "さいたま市 南区",
    "citykana": "さいたまし みなみく",
    "lat": 35.84638889,
    "lng": 139.6480556,
    "lgcode": "111082"
  },
  {
    "pid": "11",
    "pref": "埼玉県",
    "cid": "11109",
    "city": "さいたま市 緑区",
    "citykana": "さいたまし みどりく",
    "lat": 35.87111111,
    "lng": 139.6838889,
    "lgcode": "111091"
  },
  {
    "pid": "11",
    "pref": "埼玉県",
    "cid": "11110",
    "city": "さいたま市 岩槻区",
    "citykana": "さいたまし いわつきく",
    "lat": 35.94972146,
    "lng": 139.6941694,
    "lgcode": "111104"
  },
  {
    "pid": "11",
    "pref": "埼玉県",
    "cid": "11201",
    "city": "川越市",
    "citykana": "かわごえし",
    "lat": 35.925,
    "lng": 139.4858333,
    "lgcode": "112011"
  },
  {
    "pid": "11",
    "pref": "埼玉県",
    "cid": "11202",
    "city": "熊谷市",
    "citykana": "くまがやし",
    "lat": 36.14722222,
    "lng": 139.3886111,
    "lgcode": "112020"
  },
  {
    "pid": "11",
    "pref": "埼玉県",
    "cid": "11203",
    "city": "川口市",
    "citykana": "かわぐちし",
    "lat": 35.806733,
    "lng": 139.7234,
    "lgcode": "112038"
  },
  {
    "pid": "11",
    "pref": "埼玉県",
    "cid": "11206",
    "city": "行田市",
    "citykana": "ぎょうだし",
    "lat": 36.13888889,
    "lng": 139.4558333,
    "lgcode": "112062"
  },
  {
    "pid": "11",
    "pref": "埼玉県",
    "cid": "11207",
    "city": "秩父市",
    "citykana": "ちちぶし",
    "lat": 35.99166667,
    "lng": 139.0855556,
    "lgcode": "112071"
  },
  {
    "pid": "11",
    "pref": "埼玉県",
    "cid": "11208",
    "city": "所沢市",
    "citykana": "ところざわし",
    "lat": 35.79944444,
    "lng": 139.4688889,
    "lgcode": "112089"
  },
  {
    "pid": "11",
    "pref": "埼玉県",
    "cid": "11209",
    "city": "飯能市",
    "citykana": "はんのうし",
    "lat": 35.85583333,
    "lng": 139.3277778,
    "lgcode": "112097"
  },
  {
    "pid": "11",
    "pref": "埼玉県",
    "cid": "11210",
    "city": "加須市",
    "citykana": "かぞし",
    "lat": 36.13138889,
    "lng": 139.6019444,
    "lgcode": "112101"
  },
  {
    "pid": "11",
    "pref": "埼玉県",
    "cid": "11211",
    "city": "本庄市",
    "citykana": "ほんじょうし",
    "lat": 36.24388889,
    "lng": 139.1902778,
    "lgcode": "112119"
  },
  {
    "pid": "11",
    "pref": "埼玉県",
    "cid": "11212",
    "city": "東松山市",
    "citykana": "ひがしまつやまし",
    "lat": 36.04222222,
    "lng": 139.4,
    "lgcode": "112127"
  },
  {
    "pid": "11",
    "pref": "埼玉県",
    "cid": "11214",
    "city": "春日部市",
    "citykana": "かすかべし",
    "lat": 35.97527778,
    "lng": 139.7525,
    "lgcode": "112143"
  },
  {
    "pid": "11",
    "pref": "埼玉県",
    "cid": "11215",
    "city": "狭山市",
    "citykana": "さやまし",
    "lat": 35.85305556,
    "lng": 139.4122222,
    "lgcode": "112151"
  },
  {
    "pid": "11",
    "pref": "埼玉県",
    "cid": "11216",
    "city": "羽生市",
    "citykana": "はにゅうし",
    "lat": 36.17277778,
    "lng": 139.5486111,
    "lgcode": "112160"
  },
  {
    "pid": "11",
    "pref": "埼玉県",
    "cid": "11217",
    "city": "鴻巣市",
    "citykana": "こうのすし",
    "lat": 36.06583333,
    "lng": 139.5222222,
    "lgcode": "112178"
  },
  {
    "pid": "11",
    "pref": "埼玉県",
    "cid": "11218",
    "city": "深谷市",
    "citykana": "ふかやし",
    "lat": 36.1975,
    "lng": 139.2813889,
    "lgcode": "112186"
  },
  {
    "pid": "11",
    "pref": "埼玉県",
    "cid": "11219",
    "city": "上尾市",
    "citykana": "あげおし",
    "lat": 35.9775,
    "lng": 139.5933333,
    "lgcode": "112194"
  },
  {
    "pid": "11",
    "pref": "埼玉県",
    "cid": "11221",
    "city": "草加市",
    "citykana": "そうかし",
    "lat": 35.82555556,
    "lng": 139.8055556,
    "lgcode": "112216"
  },
  {
    "pid": "11",
    "pref": "埼玉県",
    "cid": "11222",
    "city": "越谷市",
    "citykana": "こしがやし",
    "lat": 35.89111111,
    "lng": 139.7908333,
    "lgcode": "112224"
  },
  {
    "pid": "11",
    "pref": "埼玉県",
    "cid": "11223",
    "city": "蕨市",
    "citykana": "わらびし",
    "lat": 35.82555556,
    "lng": 139.6794444,
    "lgcode": "112232"
  },
  {
    "pid": "11",
    "pref": "埼玉県",
    "cid": "11224",
    "city": "戸田市",
    "citykana": "とだし",
    "lat": 35.8175,
    "lng": 139.6777778,
    "lgcode": "112241"
  },
  {
    "pid": "11",
    "pref": "埼玉県",
    "cid": "11225",
    "city": "入間市",
    "citykana": "いるまし",
    "lat": 35.83583333,
    "lng": 139.3911111,
    "lgcode": "112259"
  },
  {
    "pid": "11",
    "pref": "埼玉県",
    "cid": "11227",
    "city": "朝霞市",
    "citykana": "あさかし",
    "lat": 35.79722222,
    "lng": 139.5936111,
    "lgcode": "112275"
  },
  {
    "pid": "11",
    "pref": "埼玉県",
    "cid": "11228",
    "city": "志木市",
    "citykana": "しきし",
    "lat": 35.83666667,
    "lng": 139.5802778,
    "lgcode": "112283"
  },
  {
    "pid": "11",
    "pref": "埼玉県",
    "cid": "11229",
    "city": "和光市",
    "citykana": "わこうし",
    "lat": 35.78138889,
    "lng": 139.6058333,
    "lgcode": "112291"
  },
  {
    "pid": "11",
    "pref": "埼玉県",
    "cid": "11230",
    "city": "新座市",
    "citykana": "にいざし",
    "lat": 35.79333333,
    "lng": 139.5652778,
    "lgcode": "112305"
  },
  {
    "pid": "11",
    "pref": "埼玉県",
    "cid": "11231",
    "city": "桶川市",
    "citykana": "おけがわし",
    "lat": 36.00277778,
    "lng": 139.5583333,
    "lgcode": "112313"
  },